{"people":["Wen Jiabao","Piot","Michel Sidibe","Yao Ming","Abdoulaye Wade","DONALD G. McNEIL Jr","Michel","Sidibe","Bono","Hugh Masekela","Peter Piot","Josephine Otchere-Darko"],"organizations":["Geek","BRICS","UNAIDS","Unicef","Congress","NYT Syndication","United Nations","African Union"],"places":[{"name":"United States","latitude":39.76,"longitude":-98.5,"place_type":"Country"},{"name":"US","latitude":39.76,"longitude":-98.5,"place_type":"Country"},{"name":"Mali","latitude":17.0,"longitude":-4.0,"place_type":"Country"},{"name":"Washington","latitude":47.50012,"longitude":-120.50147,"place_type":"Adm"},{"name":"Tanzania","latitude":-6.0,"longitude":35.0,"place_type":"Country"},{"name":"Soweto","latitude":-26.26781,"longitude":27.85849,"place_type":"City"},{"name":"India","latitude":20.0,"longitude":77.0,"place_type":"Country"},{"name":"France","latitude":46.0,"longitude":2.0,"place_type":"Country"},{"name":"Lesotho","latitude":-29.5,"longitude":28.25,"place_type":"Country"},{"name":"Timbuktu","latitude":16.77348,"longitude":-3.00742,"place_type":"City"},{"name":"Ethiopia","latitude":8.0,"longitude":38.0,"place_type":"Country"},{"name":"Swaziland","latitude":-26.5,"longitude":31.5,"place_type":"Country"},{"name":"Senegal","latitude":14.0,"longitude":-14.0,"place_type":"Country"},{"name":"Mozambique","latitude":-18.25,"longitude":35.0,"place_type":"Country"},{"name":"Brazil","latitude":-10.0,"longitude":-55.0,"place_type":"Country"},{"name":"Africa","latitude":-30.0,"longitude":26.0,"place_type":"Country"},{"name":"South Africa","latitude":-30.0,"longitude":26.0,"place_type":"Country"},{"name":"Russia","latitude":60.0,"longitude":100.0,"place_type":"Country"},{"name":"Mama","latitude":58.31056,"longitude":112.89861,"place_type":"City"},{"name":"China","latitude":35.0,"longitude":105.0,"place_type":"Country"}]}