{"people":["James","Cecil","Cecile Asaji","Chris*","John","Chris","Cecile","Kinuthia Mburu"],"organizations":["St. Mary’s Girls’ School","Kampala International University","Bachelor’s Degree in Mass Communication","Cupid","Moi Referral Hospital"],"places":[{"name":"Kakamega","latitude":0.28422,"longitude":34.75228,"place_type":"City"},{"name":"US","latitude":39.76,"longitude":-98.5,"place_type":"Country"},{"name":"Vihiga","latitude":0.53455,"longitude":34.79109,"place_type":"School"},{"name":"Eldoret","latitude":0.52036,"longitude":35.26992,"place_type":"City"},{"name":"Kisumu","latitude":-0.10221,"longitude":34.76171,"place_type":"City"},{"name":"Uganda","latitude":2.0,"longitude":33.0,"place_type":"Country"},{"name":"Mumias","latitude":0.33511,"longitude":34.4864,"place_type":"City"}]}