{"people":["Elsa Atieno","Mr Odinga","Mheshimiwa","Murigi","Kibaki","JOACHIM OMOLO","Peter","Mr Kibaki","FRANCIS N. WAWERU","Richard Leakey","Chebii","Katie Hilma","Mwai Kibaki","Judge Ringera","Mr Musyoka","Hempstone","Francis Atwoli","Moi                     Thika-Murang","Gilbey","Tom Mboya","Harun Ndubi","Kaloleni","Mr Moi","Gibson Macharia","PETER NDIRITU","Muthaura","Mr Kazungu Kambi","Stephen Echakara","Mr Kenyatta","Tetu","Mr Francis","MICHAEL G. MWANGI                     SALIM JUMA SALIM","Aaron Ringera","Julius Nyerere","Imelda Marcos"],"organizations":["Support Group","Daily Nation","Service","British Government","Kenya Anti Corruption Commission","Finance","Public Service","Kanyamwa Vodka","Secondary School","Kiambu                             Mombasa Today","Harbours Corporation","Tetu Member of Parliament","US Ambassador Smith","BBC","Kenya-Tanzania","Commission","Government","Jomo Kenyatta           Mr Justice Aaron Ringera","Prime Minister Raila Odinga","Economic Commission for Africa","Navy","ODM","Odinga","Aniel Njoka","Anglo"],"places":[{"name":"Hague","latitude":52.07667,"longitude":4.29861,"place_type":"City"},{"name":"Philippines","latitude":13.0,"longitude":122.0,"place_type":"Country"},{"name":"Hong Kong","latitude":22.28552,"longitude":114.15769,"place_type":"City"},{"name":"Tanzania","latitude":-6.0,"longitude":35.0,"place_type":"Country"},{"name":"Soma","latitude":49.91667,"longitude":2.5,"place_type":"Adm"},{"name":"P.O.","latitude":39.66472,"longitude":106.81222,"place_type":"City"},{"name":"East","latitude":-5.0,"longitude":120.0,"place_type":"Country"},{"name":"South Nyanza","latitude":-0.75,"longitude":34.41667,"place_type":"GisFeature"},{"name":"Kenya","latitude":1.0,"longitude":38.0,"place_type":"Country"},{"name":"Ethiopia","latitude":8.0,"longitude":38.0,"place_type":"Country"},{"name":"South Africa","latitude":-30.0,"longitude":26.0,"place_type":"Country"},{"name":"Kenyatta","latitude":-1.1,"longitude":36.98333,"place_type":"Road"},{"name":"Asia","latitude":9.56667,"longitude":122.6,"place_type":"Adm"},{"name":"Somalia","latitude":6.0,"longitude":48.0,"place_type":"Country"},{"name":"Britain","latitude":54.0,"longitude":-4.0,"place_type":"Country"},{"name":"Nairobi","latitude":-1.28333,"longitude":36.81667,"place_type":"City"},{"name":"Bengoni","latitude":-3.63333,"longitude":39.43333,"place_type":"City"},{"name":"US","latitude":39.76,"longitude":-98.5,"place_type":"Country"},{"name":"Okemo","latitude":43.39924,"longitude":-72.75204,"place_type":"Forest"},{"name":"Guadalcanal","latitude":-9.75,"longitude":160.0,"place_type":"Adm"},{"name":"Nyeri","latitude":-0.42013,"longitude":36.94759,"place_type":"City"},{"name":"Mahin","latitude":20.96667,"longitude":94.06667,"place_type":"City"},{"name":"Algeria","latitude":28.0,"longitude":3.0,"place_type":"Country"},{"name":"Beirut","latitude":33.88894,"longitude":35.49442,"place_type":"City"},{"name":"Japan","latitude":35.68536,"longitude":139.7531,"place_type":"Country"}]}