{"people":["Mr Padraig Flynn","EDUARDO ORTEGA","Andre Stroobart","Wegter","Nico Wegter"],"organizations":["Belgian Epidemiological Institute","Commission","European Union","EU","European Commission"],"places":[{"name":"Portugal","latitude":39.5,"longitude":-8.0,"place_type":"Country"},{"name":"Finland","latitude":64.0,"longitude":26.0,"place_type":"Country"},{"name":"Spain","latitude":40.0,"longitude":-4.0,"place_type":"Country"},{"name":"Paris","latitude":48.85339,"longitude":2.34864,"place_type":"Adm"},{"name":"Ireland","latitude":54.0,"longitude":-4.0,"place_type":"Country"},{"name":"Luxembourg","latitude":49.75,"longitude":6.16667,"place_type":"Country"},{"name":"Europe","latitude":43.5333,"longitude":3.9833,"place_type":"Hotel"},{"name":"BRUSSELS","latitude":50.85045,"longitude":4.34878,"place_type":"City"},{"name":"Italy","latitude":42.83333,"longitude":12.83333,"place_type":"Country"}]}