{"people":["Mr Odinga","Sandra Thurman","Orengo","Konzolo","Mwangi","Mr Gumo","Chainnan Oduor","Kamau Thirikwa","Gumo","Paul Waweru","Paul Muite","Kihara","David Mwenje","Jeshi","Philemon Abong","KIPKOECH TANUI","Mr Shem Ochuodho","Sammy Marit","Fred              Mr Odinga","Johnnie","Mr Orengo","Moses Mwihia","Sam Ongeri","Waithaka Mwan","Muite"],"organizations":["Select Committee","High School","Shem    Company","Public Health Min","NDP","Kamiti Farmers Company","Kenya Power","US Government","Nairobi City Council Savings and Credit Co-operative Society","Council of NGOs","High Court","VAT Department","Teachers Association","Equity Building Society","Raila","Coffee Board of Kenya","White House","USAid","Johnstone Mitey","Product                  Pack Size              Bar Price        Product                           Pack Size                 Bar Price"],"places":[{"name":"Kitale","latitude":1.01572,"longitude":35.00622,"place_type":"City"},{"name":"Nairobi","latitude":-1.28333,"longitude":36.81667,"place_type":"City"},{"name":"Kenya","latitude":1.0,"longitude":38.0,"place_type":"Country"},{"name":"Parlia","latitude":26.06667,"longitude":89.13333,"place_type":"City"},{"name":"The United States","latitude":19.42847,"longitude":-99.12766,"place_type":"City"},{"name":"Arusha","latitude":-3.36667,"longitude":36.68333,"place_type":"City"}]}