{"people":["William Korir","N. Cherangani","Orengo","Dan A. Otieno","Margaret Thatcher","Bush","Rodney J.","Saitoti","Mr Risa","Daniel ole Muyaa","Avinash","Madsen Pirie","Mr Maizs","Kanu","Joice Walulea","Ongeri","W. Bush","Lilian Kariuki","P.M.M. Karanja","Ruth Gatabaki","John Msafari","Mrs Thatcher","Victor Machokaa","M.N. Njama","Enoch Magara","Muyaa","Alfred Musia","Jonathan Mturi","George Saitoti","Daniel Diang"],"organizations":["NDP","Treasury","Parliament","Gill House","Keiyo","\\           Conservative Party","Parliamentary","Rural Electrificu","Chumo Benson","Mageuzi","Redeemed                                                                                                                                                                                                                Gospel Church","Opposi","KPA","Daily Nation","Cheatle","Msa","Labour Party","National Development","State House","Moi University","Adam Smith Institute","Commission","Kenya Revenue Authority","County Council","Conservative Party","Moi Airbase","White House","Ngong Veterinary","Programme","Self Help Group"],"places":[{"name":"Britain","latitude":54.0,"longitude":-4.0,"place_type":"Country"},{"name":"United States","latitude":39.76,"longitude":-98.5,"place_type":"Country"},{"name":"Nairobi","latitude":-1.28333,"longitude":36.81667,"place_type":"City"},{"name":"Lagos","latitude":6.58333,"longitude":3.75,"place_type":"Adm"},{"name":"Nairo","latitude":49.11667,"longitude":142.96667,"place_type":"City"},{"name":"Nandi","latitude":-17.8,"longitude":177.41667,"place_type":"City"},{"name":"Khartoum","latitude":15.55177,"longitude":32.53241,"place_type":"City"},{"name":"Kajiado","latitude":-1.85238,"longitude":36.77683,"place_type":"City"},{"name":"Harare","latitude":-17.82935,"longitude":31.05389,"place_type":"City"},{"name":"South Mugirango","latitude":-0.83333,"longitude":34.65,"place_type":"GisFeature"},{"name":"London","latitude":51.50853,"longitude":-0.12574,"place_type":"City"},{"name":"Kenya","latitude":1.0,"longitude":38.0,"place_type":"Country"},{"name":"KRA","latitude":50.9236,"longitude":22.22706,"place_type":"City"},{"name":"Eldoret","latitude":0.52036,"longitude":35.26992,"place_type":"City"},{"name":"Africa","latitude":-30.0,"longitude":26.0,"place_type":"Country"}]}