{"organizations":["USAID","FMCG","P.O. Box 30386      NAIROBI                                                                                            UMITED                                                                                        NAIROBI","NGO","Organization","Unga Farm Care","EA) Ltd.","~m                                                                                    Human Resources Specialist      Unga Group Ltd","Christian International Development Non-Governmental           Organization","Unga Group of Companies","The Organisation","Commerce","Human Resources      and Admin","UNGA"],"places":[{"name":"E.A.","latitude":21.17389,"longitude":-156.91943,"place_type":"GisFeature"},{"name":"KENYA","latitude":1.0,"longitude":38.0,"place_type":"Country"},{"name":"Nairobi","latitude":-1.28333,"longitude":36.81667,"place_type":"City"},{"name":"NAIROBI","latitude":-1.28333,"longitude":36.81667,"place_type":"City"},{"name":"Kenya","latitude":1.0,"longitude":38.0,"place_type":"Country"},{"name":"Tanzania","latitude":-6.0,"longitude":35.0,"place_type":"Country"},{"name":"Northern Kenya","latitude":-0.08333,"longitude":37.15,"place_type":"Stream"},{"name":"East","latitude":-5.0,"longitude":120.0,"place_type":"Country"},{"name":"LIMITED                                                                                                                                                           Kenya","latitude":-4.38029,"longitude":39.5168,"place_type":"Plantation"},{"name":"Africa","latitude":-30.0,"longitude":26.0,"place_type":"Country"},{"name":"Central Africa","latitude":-2.02107,"longitude":24.69727,"place_type":"GisFeature"},{"name":"Uganda","latitude":2.0,"longitude":33.0,"place_type":"Country"}]}