{"people":["Yusuke Terata","Lemp","Saddam Hussein","Yosh","Matt Mutchler","George Lemp","Jon Yoshishige","Masumi Ter"],"organizations":["O-footEhime Maru","Ksh","Scratch Cards","US Pacific Fleet","Columbia","Ehime Maru","Maru","Navy","MOBILE YA WANAINCHI                          Ltd","PEUGEOT","Uwajima Fisheries High"],"places":[{"name":"Salva","latitude":-12.38333,"longitude":16.93333,"place_type":"City"},{"name":"United States","latitude":39.76,"longitude":-98.5,"place_type":"Country"},{"name":"SAN VICENTE","latitude":13.08333,"longitude":-61.2,"place_type":"Country"},{"name":"US","latitude":39.76,"longitude":-98.5,"place_type":"Country"},{"name":"HONOLULU","latitude":21.46667,"longitude":-157.96667,"place_type":"Adm"},{"name":"Vancouver","latitude":49.24966,"longitude":-123.11934,"place_type":"City"},{"name":"San Vicente","latitude":13.08333,"longitude":-61.2,"place_type":"Country"},{"name":"Hawaii","latitude":20.75028,"longitude":-156.50027,"place_type":"Adm"},{"name":"Los Angeles County","latitude":33.88638,"longitude":-118.04535,"place_type":"GisFeature"},{"name":"Baghdad","latitude":33.34058,"longitude":44.40088,"place_type":"City"},{"name":"Los Angeles","latitude":33.88638,"longitude":-118.04535,"place_type":"GisFeature"},{"name":"Japan","latitude":35.68536,"longitude":139.7531,"place_type":"Country"},{"name":"San Australia","latitude":14.88333,"longitude":-91.88333,"place_type":"Farm"}]}