{"people":["Boseley","Mr Ndogoni","Mr Wainaina","June Koinange","WANDERA OJANJI","Mr Simon Wainaina","Mr Robert Leny'a","PAUL REDFERN","Bosely"],"organizations":["John Hopkins University","Naivasha District","NGO Medecins","Cross-clIltural Assessment  of Trallma-Related Mental Illness","GlaxoSmithKline","NGO","The Association of People Living","Merck","Cipla","Lincoln Ndogoni of World Vision International","Bristol Myers Squibb","Guardian Health"],"places":[{"name":"US","latitude":39.76,"longitude":-98.5,"place_type":"Country"},{"name":"Kiambu","latitude":-1.16667,"longitude":36.83333,"place_type":"City"},{"name":"West","latitude":30.86017,"longitude":72.31976,"place_type":"Adm"},{"name":"Uganda","latitude":2.0,"longitude":33.0,"place_type":"Country"},{"name":"Rwanda","latitude":-2.0,"longitude":30.0,"place_type":"Country"},{"name":"India","latitude":20.0,"longitude":77.0,"place_type":"Country"},{"name":"Thika","latitude":-1.03326,"longitude":37.06933,"place_type":"City"},{"name":"Kenya","latitude":1.0,"longitude":38.0,"place_type":"Country"},{"name":"Senegal","latitude":14.0,"longitude":-14.0,"place_type":"Country"},{"name":"Rakai","latitude":-0.61556,"longitude":31.5175,"place_type":"City"},{"name":"Africa","latitude":-30.0,"longitude":26.0,"place_type":"Country"},{"name":"Kisumu","latitude":-0.10221,"longitude":34.76171,"place_type":"City"},{"name":"South Africa","latitude":-30.0,"longitude":26.0,"place_type":"Country"},{"name":"Pretoria","latitude":-26.08333,"longitude":28.25,"place_type":"Adm"},{"name":"Masaka","latitude":-0.33379,"longitude":31.73409,"place_type":"City"}]}