{"people":["Mr Raila Odinga","Kiplimo Kugut","Omolo","Kitoto Oruko","Kiangoi","Joseph Kiangoi","Mr William Ruto","Ruto","Mr Ruto","James Orengo","HENRY NYARORA","Mr Oruko"],"organizations":["Government","Duhai Shopping Festival","Jamarogi Oginga Odinga Founda","Nyanza People Forum","Ministry of Finance","United States Nyong","Shopping Festival","Dubal","District Commis"],"places":[{"name":"Kenya","latitude":1.0,"longitude":38.0,"place_type":"Country"},{"name":"Dubai International Airport","latitude":25.25278,"longitude":55.36444,"place_type":"Airport"},{"name":"North Mugi","latitude":39.29139,"longitude":124.73583,"place_type":"Island"},{"name":"Muhoroni","latitude":-0.15406,"longitude":35.19878,"place_type":"City"},{"name":"Anyang","latitude":36.09944,"longitude":114.32889,"place_type":"City"},{"name":"Kisumu","latitude":-0.10221,"longitude":34.76171,"place_type":"City"},{"name":"United Kingdom","latitude":54.0,"longitude":-4.0,"place_type":"Country"}]}