{"people":["Politi","Makarios Road","Vajpayee","Marie McDonald","Robert Keatley","Maura O'Donohue","Macedo","Joaquin Navarro-Valls","Martinez Somalo","Sister O'Donohue"],"organizations":["Inter-American  Development Bank","Pfizer Inc.","South China Morning","Chief Vatican","Roman                                         Development","Vatican","Union of Superiors","The                                                                                                                              Associated Press","Reuters","International Union of Superiors","American College of Cardi","DAIHATSU","Nairobi         Koinange Street","Kansas City-based National Cath"],"places":[{"name":"United States","latitude":39.76,"longitude":-98.5,"place_type":"Country"},{"name":"Tetovo","latitude":42.01056,"longitude":20.97139,"place_type":"City"},{"name":"MOSCOW","latitude":55.75,"longitude":37.5,"place_type":"Adm"},{"name":"P.O.","latitude":39.66472,"longitude":106.81222,"place_type":"City"},{"name":"Ireland","latitude":54.0,"longitude":-4.0,"place_type":"Country"},{"name":"Chile","latitude":-30.0,"longitude":-71.0,"place_type":"Country"},{"name":"Orlando","latitude":28.53834,"longitude":-81.37924,"place_type":"City"},{"name":"Florida","latitude":28.75054,"longitude":-82.5001,"place_type":"Adm"},{"name":"Italy","latitude":42.83333,"longitude":12.83333,"place_type":"Country"},{"name":"India","latitude":20.0,"longitude":77.0,"place_type":"Country"},{"name":"Macedonia","latitude":41.83333,"longitude":22.0,"place_type":"Country"},{"name":"Brazil","latitude":-10.0,"longitude":-55.0,"place_type":"Country"},{"name":"Santiago","latitude":-33.42628,"longitude":-70.56656,"place_type":"City"},{"name":"Pacific","latitude":46.56649,"longitude":-123.71794,"place_type":"Adm"},{"name":"Africa","latitude":-30.0,"longitude":26.0,"place_type":"Country"},{"name":"Philip","latitude":13.11667,"longitude":-59.46667,"place_type":"Adm"}]}