{"people":["Fatuma","Majengo"],"organizations":["27     International             Women","Kenyatta       World Medical Associations","National Hospital","Immuno","Eastern","Social Determinants of Health","CENTRE FOR AFRICAN                                                                                                           Information Network","Woodvale Grove","Rosemary Okello","Oxford University","Pamslem House","FGM","Consolata                                               Emall:courses@cafs.org","Advocacyskills      Kenya Demographic Health","University of Nairobi"],"places":[{"name":"CAIRO","latitude":30.06263,"longitude":31.24967,"place_type":"City"},{"name":"Helsinki","latitude":60.16952,"longitude":24.93545,"place_type":"City"},{"name":"Nairobi","latitude":-1.28333,"longitude":36.81667,"place_type":"City"},{"name":"Kenya","latitude":1.0,"longitude":38.0,"place_type":"Country"},{"name":"P.O.","latitude":39.66472,"longitude":106.81222,"place_type":"City"},{"name":"BEIJING","latitude":40.25,"longitude":116.5,"place_type":"Adm"},{"name":"Fatuma","latitude":9.66667,"longitude":5.3,"place_type":"City"},{"name":"Majengo","latitude":-5.15,"longitude":38.98333,"place_type":"City"}]}