{"people":["Mr Mervyn Senior","Mr Patrick Kombayi","Robert    Mugabe","Mr Tshisekedi","Nkosi Johnson","Zimba","Joseph Kabi","Mr Kombayi","Johnson","Mr Tsh","Thabo Mbeki","Nkosi","Mondav                                                                                                                                                                                         Mr Etienne Tshisekedi","Gail Johnson","Mugabe","Mbeki"],"organizations":["Republic of Congo","Confederation of Zimba","Heavy","Reuters","1st Parklands Ave. P.O. Box 45280                                                                                                                          Nairobi Attn","Avenue Hospital","Nyerere Ave. P.O. Box 90180 Mombasa Attn","AROUND                  AFRICA                                                                                                                                                                                          Congo Mugabe                                                                                                                                                                                   Former","NOTICE                                                                                                                      Avenue Healthcare Ltd","Nkosi","Branch Clinics","Industries","University Graduates","Union for    Bands","OPD","Avenue Healthcare Clinic","UDPS","Laurent Kabila"],"places":[{"name":"Nairobi","latitude":-1.28333,"longitude":36.81667,"place_type":"City"},{"name":"Cape Town","latitude":-33.92584,"longitude":18.42322,"place_type":"City"},{"name":"Harare","latitude":-17.82935,"longitude":31.05389,"place_type":"City"},{"name":"Kinshasa","latitude":0.0,"longitude":25.0,"place_type":"Country"},{"name":"ALGIERS","latitude":36.7525,"longitude":3.04197,"place_type":"City"},{"name":"Mombasa","latitude":-4.05466,"longitude":39.66359,"place_type":"City"},{"name":"KINSHASA","latitude":0.0,"longitude":25.0,"place_type":"Country"},{"name":"France","latitude":46.0,"longitude":2.0,"place_type":"Country"},{"name":"Gweru","latitude":-19.45,"longitude":29.81667,"place_type":"City"},{"name":"Brussels","latitude":50.85045,"longitude":4.34878,"place_type":"City"},{"name":"Belgium","latitude":50.83333,"longitude":4.0,"place_type":"Country"},{"name":"HARARE","latitude":-17.82935,"longitude":31.05389,"place_type":"City"},{"name":"Africa","latitude":-30.0,"longitude":26.0,"place_type":"Country"},{"name":"Tizi Ouzou","latitude":36.54222,"longitude":3.95306,"place_type":"City"},{"name":"Algeria","latitude":28.0,"longitude":3.0,"place_type":"Country"},{"name":"Kabylie","latitude":36.54222,"longitude":3.95306,"place_type":"City"},{"name":"JOHANNESBURG","latitude":-26.20227,"longitude":28.04363,"place_type":"City"}]}