{"people":["Kanja","Jane Kiano","Moi","Mr John","Marsden       Madoka","Peter                                                                                                    Kamau Kimani","Elimo Njau","John Nagenda","Mr Houghton","Eli Kyeyune","Mr John Munyao","Mr Patrick Gathumbi","Ngugi","John Ruganda","Mr Munyao Kaku","Gladys","Sam Ongeri","Mr Roger Houghton","Philip Ochieng","C. Nyaloti / D. Muturi / S. Nguru"],"organizations":["National Council of Women of","Head Office","p.m. Saturdays                           ·                                         HEAD OFFICE & Central Region               North Rift & Western Region   Coast Region                                                                                                                      KEN   YA","Evening","Kenya Government","Kenya Certificate of Secondary Education","University of Nairobi Main Campus                        A              Standard                     Haile Sela55ie Avenue-Uhuru     Highway    2nd Floor Uganda","University","7th & Isl","Matatu Welfare Association","Development Party","Evening                                                                                                    Teachers","Ministry of                 Wambui","Commerce","Cabinet Ministers Bonaya                                                                                                       He","Faculty of Commerce","CPA Centre","Aids Control Council","National","Plaza           T.S.S. Towers 1st & 12th FIrs","Turkana District","Kenya Revenue Authority","Njau Kuria","National                                         • ACCA Foundation & Certificate     Day and Evening","Standard Assurance","Kenya College of Accountancy","University of Nairobi","Oxford University Press"],"places":[{"name":"Britain","latitude":54.0,"longitude":-4.0,"place_type":"Country"},{"name":"Nairobi","latitude":-1.28333,"longitude":36.81667,"place_type":"City"},{"name":"Nigeria","latitude":10.0,"longitude":8.0,"place_type":"Country"},{"name":"Nyandarua","latitude":-0.63333,"longitude":36.7,"place_type":"GisFeature"},{"name":"Nakuru","latitude":-0.28333,"longitude":36.06667,"place_type":"City"},{"name":"Godana","latitude":8.0,"longitude":13.68333,"place_type":"Hill"},{"name":"Uganda","latitude":2.0,"longitude":33.0,"place_type":"Country"},{"name":"Mombasa","latitude":-4.05466,"longitude":39.66359,"place_type":"City"},{"name":"London","latitude":51.50853,"longitude":-0.12574,"place_type":"City"},{"name":"Thika","latitude":-1.03326,"longitude":37.06933,"place_type":"City"},{"name":"Kenya","latitude":1.0,"longitude":38.0,"place_type":"Country"},{"name":"NAIROBI","latitude":-1.28333,"longitude":36.81667,"place_type":"City"},{"name":"Eldoret","latitude":0.52036,"longitude":35.26992,"place_type":"City"},{"name":"Liboi","latitude":42.53333,"longitude":-9.03333,"place_type":"City"},{"name":"Africa","latitude":-30.0,"longitude":26.0,"place_type":"Country"},{"name":"Kerugoya","latitude":-0.49886,"longitude":37.28031,"place_type":"City"}]}