{"people":["Kaparo","Kipkemboi R. Robert","Amos Ngaira","Njuguna Karanja","John Okello","Ngesa","Hamisi","Ben Makuto","Kenneth Matiba","Mr Joseph Simpson","Evelyn Baring","Jane Gathoni","Johnstone Kiraithe","Ouko Robert"],"organizations":["Royal Air Force","Eighth Parlia","National Assembly","Parliament","GRE","Woodvale Grove","TOEFL","Time","King of            Gaza Strip","Coca-Cola                                         Kingdom      of Buganda","Educational Testing Services","Parliamentary Committee","ETS","House","New Soko Mjinga","African Member of Parliament","Meru","TSC","Daily Nation","Frise Holdings","ABC Bank","The United Nations","Jericho Estate","Coke","Sar","Mwathe","Ministry of Health","Air","The Ministry of Education","Treaty of Peace","Police     Lines","Teachers Service Commis","Kabungut Sec","Niva","Evans Sasaka Page","OAU"],"places":[{"name":"West","latitude":30.86017,"longitude":72.31976,"place_type":"Adm"},{"name":"Parliament","latitude":53.06667,"longitude":-0.81667,"place_type":"City"},{"name":"Afghanistan","latitude":33.0,"longitude":66.0,"place_type":"Country"},{"name":"London","latitude":51.50853,"longitude":-0.12574,"place_type":"City"},{"name":"Kenya","latitude":1.0,"longitude":38.0,"place_type":"Country"},{"name":"Eastleigh","latitude":-26.98023,"longitude":26.67272,"place_type":"City"},{"name":"Embu","latitude":-23.64664,"longitude":-46.85386,"place_type":"Adm"},{"name":"Saxony","latitude":52.0,"longitude":10.0,"place_type":"Adm"},{"name":"Nairobi","latitude":-1.28333,"longitude":36.81667,"place_type":"City"},{"name":"Atlan","latitude":20.33333,"longitude":-99.68333,"place_type":"RailRoadStation"},{"name":"Nairo","latitude":49.11667,"longitude":142.96667,"place_type":"City"},{"name":"Zaire","latitude":0.0,"longitude":25.0,"place_type":"Country"},{"name":"Mandera","latitude":3.93663,"longitude":41.86701,"place_type":"City"},{"name":"Austria","latitude":47.33333,"longitude":13.33333,"place_type":"Country"},{"name":"Libya","latitude":25.0,"longitude":17.0,"place_type":"Country"},{"name":"Uganda","latitude":2.0,"longitude":33.0,"place_type":"Country"},{"name":"Nyeri","latitude":-0.42013,"longitude":36.94759,"place_type":"City"},{"name":"Prussia","latitude":40.08927,"longitude":-75.39602,"place_type":"City"},{"name":"Kisii","latitude":-0.68174,"longitude":34.76666,"place_type":"City"},{"name":"Eldoret","latitude":0.52036,"longitude":35.26992,"place_type":"City"},{"name":"New Jersey","latitude":40.75766,"longitude":-73.91327,"place_type":"GisFeature"},{"name":"Russia","latitude":60.0,"longitude":100.0,"place_type":"Country"},{"name":"Cicero","latitude":41.84559,"longitude":-87.75394,"place_type":"City"}]}