{"people":["Elijah","Michael Sang","Mr Davies Chelogoi","Tuwei","Ken","Newton Kulundu","Francis Baya","Samuel Chelule","Sigei","Joseph Kimii","Julius Meme","Saino","Vincent Chebre","Mr Stephen Tigerer"],"organizations":["Daily Nation","GlaxoSmithkline","Kenya Access to Essential","Medicines Coalition","Pfizer","Parliament","Cipla","House","Kenya Government"],"places":[{"name":"Nairobi","latitude":-1.28333,"longitude":36.81667,"place_type":"City"},{"name":"Kenya","latitude":1.0,"longitude":38.0,"place_type":"Country"},{"name":"Brazil","latitude":-10.0,"longitude":-55.0,"place_type":"Country"},{"name":"Rift Valley","latitude":0.5,"longitude":36.0,"place_type":"Adm"},{"name":"Nakuru","latitude":-0.28333,"longitude":36.06667,"place_type":"City"},{"name":"Africa","latitude":-30.0,"longitude":26.0,"place_type":"Country"},{"name":"Nai","latitude":10.95,"longitude":106.81667,"place_type":"City"},{"name":"Uganda","latitude":2.0,"longitude":33.0,"place_type":"Country"},{"name":"Kericho","latitude":-0.36774,"longitude":35.28314,"place_type":"City"},{"name":"South Africa","latitude":-30.0,"longitude":26.0,"place_type":"Country"},{"name":"Mombasa","latitude":-4.05466,"longitude":39.66359,"place_type":"City"},{"name":"India","latitude":20.0,"longitude":77.0,"place_type":"Country"}]}