{"people":["Komaki","Denisa Ratansata","Knut","Hagadera","Christine"],"organizations":["DRC","United Nations Aids","National Institute","Spirit","Reuters","First and Second","First and Second Women","Christine","North Eastern","Refugee Consortium of Kenya","Jesuit Refugee Service","Programme","United","Refugee Consortium                                                 Dagahaley"],"places":[{"name":"Angola","latitude":-12.5,"longitude":18.5,"place_type":"Country"},{"name":"US","latitude":39.76,"longitude":-98.5,"place_type":"Country"},{"name":"Kakuma","latitude":36.75,"longitude":137.43333,"place_type":"City"},{"name":"Somali","latitude":6.0,"longitude":48.0,"place_type":"Country"},{"name":"Zealand","latitude":-42.0,"longitude":174.0,"place_type":"Country"},{"name":"Burundi","latitude":-3.5,"longitude":30.0,"place_type":"Country"},{"name":"Uganda","latitude":2.0,"longitude":33.0,"place_type":"Country"},{"name":"Sudan","latitude":16.0,"longitude":30.0,"place_type":"Country"},{"name":"Mombasa","latitude":-4.05466,"longitude":39.66359,"place_type":"City"},{"name":"Rwanda","latitude":-2.0,"longitude":30.0,"place_type":"Country"},{"name":"Halima","latitude":35.27333,"longitude":1.86694,"place_type":"Airport"},{"name":"Kenya","latitude":1.0,"longitude":38.0,"place_type":"Country"},{"name":"Dadaab","latitude":0.06128,"longitude":40.31029,"place_type":"GisFeature"},{"name":"Japan","latitude":35.68536,"longitude":139.7531,"place_type":"Country"},{"name":"Somalia","latitude":6.0,"longitude":48.0,"place_type":"Country"}]}