{"people":["Peter  Piot","John Joseph","Mr Kamotho","Kanu","Kamotho","Mr Kibaki","Tony Blair"],"organizations":["Traffic Department","Tony Blair's Labour Party","Review Commission of Kenya","Tony Blair","Democrati Party","Kingdom of Great Britain and Northern","Government","UNAIDS","Ministry of Information","DAIL Y   NATION       Nairobp.","Transport and Communications","Board","Roads Board","United Nations","Kenyatta","General Election","Ministry of Roads","United","Motor Vehicle Inspection Unit"],"places":[{"name":"Nairobi","latitude":-1.28333,"longitude":36.81667,"place_type":"City"},{"name":"Kenya","latitude":1.0,"longitude":38.0,"place_type":"Country"},{"name":"Central Province","latitude":-13.5,"longitude":34.0,"place_type":"Adm"},{"name":"Paris","latitude":48.85339,"longitude":2.34864,"place_type":"Adm"},{"name":"Nakuru","latitude":-0.28333,"longitude":36.06667,"place_type":"City"},{"name":"Eastlands","latitude":-30.50903,"longitude":29.82775,"place_type":"City"},{"name":"Umoja","latitude":39.29667,"longitude":-76.64056,"place_type":"School"},{"name":"London","latitude":51.50853,"longitude":-0.12574,"place_type":"City"},{"name":"Macharia","latitude":43.18977,"longitude":-2.46658,"place_type":"CitySubdivision"}]}