{"people":["Michael Kagambi","Beth Mugo","Mr Theuri","Mr Laban Kiprop","Mrs Mugo","Bernard     Kimathi","Kubai","Mr Justice Erastus Githinji"],"organizations":["Nbi Cyber· Kenya Cinema","Hilton Square","Daily Nation","Diploma & Certificate in Hotel & Catering","Kenyalla Ave.                  Professor of International Relations","Kagumo Teachers                                             Earlier","Senior Resident Magistrate C.       Wagiita Theuri","Jaga Pharmacy· Koinange Street                    Central University of Venezuela","Standing Committee on Human          D. Nyamweya","Bank","Faculty of Arts Seminars and Publications Committee","National","Evening","Finance Union","Fir Moklar Daddah 51","Junction 01 Uganda & 0100 Rd.","Information Technology","National Bank","Government","Narshl Hse","AG","Uasin Gishu","Free Voicemail                 Motorola"],"places":[{"name":"Nairobi","latitude":-1.28333,"longitude":36.81667,"place_type":"City"},{"name":"NEW                                                                                                                              JULY","latitude":34.79283,"longitude":-106.38308,"place_type":"Camp"},{"name":"Kenya","latitude":1.0,"longitude":38.0,"place_type":"Country"},{"name":"la.","latitude":35.0,"longitude":105.0,"place_type":"Country"},{"name":"Mount     Kenya","latitude":-0.15,"longitude":37.3,"place_type":"Mountain"},{"name":"Venezuela","latitude":8.0,"longitude":-66.0,"place_type":"Country"},{"name":"P.A.","latitude":42.94222,"longitude":126.05611,"place_type":"City"},{"name":"Nyeri","latitude":-0.42013,"longitude":36.94759,"place_type":"City"},{"name":"NAKURU","latitude":-0.28333,"longitude":36.06667,"place_type":"City"},{"name":"ELDORET","latitude":0.52036,"longitude":35.26992,"place_type":"City"},{"name":"Mombasa","latitude":-4.05466,"longitude":39.66359,"place_type":"City"}]}