{"people":["Alan Shearer","Catherine Davies","Gill","George Herbert","Mrs Davies","Haifeng","Harro","Loughran","Ken Clarke","Terrence Higgins","Donne","Mark","Ken Kamoche","John Hardy Clarke","Edith Sitwell"],"organizations":["Coca-Cola","Sunday Nation","Rupert Murdoch","IOC","National Schizophrenia Fellowship","Colin Powell","Christie Hospital in Manchester","National","Dufferin","Eastenders","BBC            Letter","USA","Litany of Divine Praises","BBC","Newcastle United","Jomo Kenyatta","Breast Cancer Care","US Secretary of State                                                                    Avon"],"places":[{"name":"Seoul","latitude":37.56826,"longitude":126.97783,"place_type":"City"},{"name":"Moscow","latitude":55.75,"longitude":37.5,"place_type":"Adm"},{"name":"Athens","latitude":37.97945,"longitude":23.71622,"place_type":"City"},{"name":"England","latitude":54.0,"longitude":-4.0,"place_type":"Country"},{"name":"Barcelona","latitude":41.66667,"longitude":2.0,"place_type":"Adm"},{"name":"Europe","latitude":43.5333,"longitude":3.9833,"place_type":"Hotel"},{"name":"London","latitude":51.50853,"longitude":-0.12574,"place_type":"City"},{"name":"Melbourne","latitude":-37.814,"longitude":144.96332,"place_type":"City"},{"name":"Toronto","latitude":43.70011,"longitude":-79.4163,"place_type":"City"},{"name":"World","latitude":39.1023,"longitude":-77.06898,"place_type":"City"},{"name":"Salt Lake City","latitude":40.76078,"longitude":-111.89105,"place_type":"City"},{"name":"China","latitude":35.0,"longitude":105.0,"place_type":"Country"},{"name":"Sydney","latitude":-33.86785,"longitude":151.20732,"place_type":"City"},{"name":"Britain","latitude":54.0,"longitude":-4.0,"place_type":"Country"},{"name":"Ken                                                     China","latitude":47.45,"longitude":126.93333,"place_type":"City"},{"name":"Berlin","latitude":52.5233,"longitude":13.41377,"place_type":"Adm"},{"name":"Tokyo","latitude":35.6895,"longitude":139.69171,"place_type":"Adm"},{"name":"Mexico City","latitude":19.42847,"longitude":-99.12766,"place_type":"City"},{"name":"Venice","latitude":45.44045,"longitude":12.32632,"place_type":"Adm"},{"name":"UK","latitude":54.0,"longitude":-4.0,"place_type":"Country"},{"name":"Helsinki","latitude":60.16952,"longitude":24.93545,"place_type":"City"},{"name":"Africa","latitude":-30.0,"longitude":26.0,"place_type":"Country"},{"name":"Beijing","latitude":40.25,"longitude":116.5,"place_type":"Adm"},{"name":"Germany","latitude":51.5,"longitude":10.5,"place_type":"Country"},{"name":"Los Angeles","latitude":33.88638,"longitude":-118.04535,"place_type":"GisFeature"},{"name":"South Korea","latitude":37.0,"longitude":127.5,"place_type":"Country"}]}