{"people":["Mr Kimani","Betty Otieno","Cathryn Mais","Eric Ruto","William Wekesa","Ken","Margaret Maura","Cecilia Gichi'a","Christopher Khamala","Sigcau","P. Kirui","Joachim Ogendo","Substone Kinuthia","Nairobians","Muigai Mwangi","MBUGUA","C. Shah","Mr Mbugua","Wanja Githinji","Theresa Svengert","Stella Sigcau"],"organizations":["Business District Association","Nairobi Central","Airways","Sunday Times","Eldoret Express","Ngong","World Tour Centre","First Union","Kenya Airways","Government","Communications","CMC","Catherine","Music","Eastern Cape Province","Eighth Parliament","Orient Insurance Company","Madonna"],"places":[{"name":"Nairobi","latitude":-1.28333,"longitude":36.81667,"place_type":"City"},{"name":"Kakamega","latitude":0.28422,"longitude":34.75228,"place_type":"City"},{"name":"US","latitude":39.76,"longitude":-98.5,"place_type":"Country"},{"name":"P.O.","latitude":39.66472,"longitude":106.81222,"place_type":"City"},{"name":"Nakuru","latitude":-0.28333,"longitude":36.06667,"place_type":"City"},{"name":"Nyeri","latitude":-0.42013,"longitude":36.94759,"place_type":"City"},{"name":"Kitale","latitude":1.01572,"longitude":35.00622,"place_type":"City"},{"name":"New York","latitude":43.00035,"longitude":-75.4999,"place_type":"Adm"},{"name":"America","latitude":39.76,"longitude":-98.5,"place_type":"Country"},{"name":"Kenya","latitude":1.0,"longitude":38.0,"place_type":"Country"},{"name":"Africa","latitude":-30.0,"longitude":26.0,"place_type":"Country"},{"name":"Kisumu","latitude":-0.10221,"longitude":34.76171,"place_type":"City"},{"name":"New Jersey","latitude":40.75766,"longitude":-73.91327,"place_type":"GisFeature"},{"name":"South Africa","latitude":-30.0,"longitude":26.0,"place_type":"Country"},{"name":"Embu","latitude":-23.64664,"longitude":-46.85386,"place_type":"Adm"}]}