{"people":["Amara Essy","George W. Bush","Thursday                                                                                                                                              Schroeder","Mr Mbeki","Mr Salim","Gerhard","Wade","Salim","Jacques Chirac","Thabo                                                                                     Union","Mr Wade","Lansana Kuyate","Mbeki"],"organizations":["Republic of Congo","Congo President Joseph   Omega","Reuters","Organisation of African Unity","Union","Omega","African Union","Second Africa","Millennium Action","European Union","British Prime Minister Tony Blair","Nkosazana Dlamini-Zuma","Sierra Leone","United Nations","OAU","The African Union","IMF"],"places":[{"name":"Angola","latitude":-12.5,"longitude":18.5,"place_type":"Country"},{"name":"Nigeria","latitude":10.0,"longitude":8.0,"place_type":"Country"},{"name":"Democratic Africa","latitude":-2.02107,"longitude":24.69727,"place_type":"GisFeature"},{"name":"Burundi","latitude":-3.5,"longitude":30.0,"place_type":"Country"},{"name":"Europe","latitude":43.5333,"longitude":3.9833,"place_type":"Hotel"},{"name":"Libya","latitude":25.0,"longitude":17.0,"place_type":"Country"},{"name":"Switzerland","latitude":47.00016,"longitude":8.01427,"place_type":"Country"},{"name":"Lusaka","latitude":-15.40669,"longitude":28.28713,"place_type":"City"},{"name":"DAKAR","latitude":14.6937,"longitude":-17.44406,"place_type":"City"},{"name":"Salim","latitude":29.25722,"longitude":48.05722,"place_type":"CitySubdivision"},{"name":"Paris","latitude":48.85339,"longitude":2.34864,"place_type":"Adm"},{"name":"Africa","latitude":-30.0,"longitude":26.0,"place_type":"Country"},{"name":"Cameroon","latitude":6.0,"longitude":12.0,"place_type":"Country"},{"name":"South Africa","latitude":-30.0,"longitude":26.0,"place_type":"Country"},{"name":"Algeria","latitude":28.0,"longitude":3.0,"place_type":"Country"},{"name":"Davos","latitude":46.80429,"longitude":9.83723,"place_type":"City"},{"name":"South   Africa","latitude":-30.0,"longitude":26.0,"place_type":"Country"}]}