{"people":["Joshua Kulei","Mr Odinga","Sixtus","Goldenberg","Adhu Awiti","Mr   Schwarzenegger","Mohammed Mossadeq","William Karanja","Vajpayee","Atal Behal Vajpayee","John Paul II","JOHNSTONE M. NJAMBURI","Kanu","Parvez","Odinga","George Saitoti","Musharraf"],"organizations":["Indian Prime Minister Rajiv Gandhi","NDp","Vatican     Hollywood","NDP","Parliament","Battle of Yarmuk","State House","KBC Raila","Congress                                                Education","Government","Ford Kenya","Nation","National Development Party","Raila Odinga","Bharatiya Janata             Gandhi","Marsden Madoka","Luo Nyanza","Kanu Government","Investment Committee","Nelson Mandela","Musharraf of Pakistan","Khalid Ibn Walid"],"places":[{"name":"Britain","latitude":54.0,"longitude":-4.0,"place_type":"Country"},{"name":"Iran","latitude":32.0,"longitude":53.0,"place_type":"Country"},{"name":"Nairobi","latitude":-1.28333,"longitude":36.81667,"place_type":"City"},{"name":"Pakistan","latitude":30.0,"longitude":70.0,"place_type":"Country"},{"name":"Central Tehran","latitude":35.2502,"longitude":50.5477,"place_type":"Road"},{"name":"Syria","latitude":35.0,"longitude":38.0,"place_type":"Country"},{"name":"England","latitude":54.0,"longitude":-4.0,"place_type":"Country"},{"name":"Habari","latitude":11.7005,"longitude":50.54331,"place_type":"Stream"},{"name":"Madiba","latitude":-23.06963,"longitude":26.80148,"place_type":"City"},{"name":"Iraq","latitude":33.0,"longitude":44.0,"place_type":"Country"},{"name":"Mombasa","latitude":-4.05466,"longitude":39.66359,"place_type":"City"},{"name":"Thika","latitude":-1.03326,"longitude":37.06933,"place_type":"City"},{"name":"Vietnam","latitude":16.16667,"longitude":107.83333,"place_type":"Country"},{"name":"India","latitude":20.0,"longitude":77.0,"place_type":"Country"},{"name":"Kenya","latitude":1.0,"longitude":38.0,"place_type":"Country"},{"name":"Kashmir","latitude":33.0,"longitude":77.0,"place_type":"Adm"},{"name":"South Africa","latitude":-30.0,"longitude":26.0,"place_type":"Country"},{"name":"Embu","latitude":-23.64664,"longitude":-46.85386,"place_type":"Adm"},{"name":"Kericho","latitude":-0.36774,"longitude":35.28314,"place_type":"City"},{"name":"South Asia","latitude":-20.30367,"longitude":28.96435,"place_type":"Mine"},{"name":"The United States","latitude":19.42847,"longitude":-99.12766,"place_type":"City"},{"name":"China","latitude":35.0,"longitude":105.0,"place_type":"Country"}]}