{"people":["Jerusa","Kelvin Munene","Mr Protais       Zigi","Charles M. Warui","Julius Gaitungu","Teresa Muthoni","Abed Rabbo","Nancy Kabura Kuria","Joan M. Muguimi","Mr Jos Colpin","Victor G. Thiong","Conrad Bukusi Nyongesa","Dian Fossey","Maleb Hellen Awiti","Yasser Arafat","Asili Hassan Ornar","Michael Katana","Mary S. Ngurnbao","Robinson","Agnes Karweria","Judge Damien Vander","Janet Awuor Okongo","Indizi","Yasser","Mary Robinson","Mr Daniel Ayalon"],"organizations":["Matathia                  Church","Box & Board","Nairobi Catholic","West Bank","Reuters","Catholic Church","Electric"],"places":[{"name":"United States","latitude":39.76,"longitude":-98.5,"place_type":"Country"},{"name":"Gaza","latitude":31.41667,"longitude":34.33333,"place_type":"Adm"},{"name":"Nanyuki","latitude":0.01667,"longitude":37.07283,"place_type":"City"},{"name":"Israel","latitude":31.5,"longitude":34.75,"place_type":"Country"},{"name":"India","latitude":20.0,"longitude":77.0,"place_type":"Country"},{"name":"Thika","latitude":-1.03326,"longitude":37.06933,"place_type":"City"},{"name":"Brussels","latitude":50.85045,"longitude":4.34878,"place_type":"City"},{"name":"Durban","latitude":-29.8579,"longitude":31.0292,"place_type":"City"},{"name":"South Africa","latitude":-30.0,"longitude":26.0,"place_type":"Country"},{"name":"Kericho","latitude":-0.36774,"longitude":35.28314,"place_type":"City"},{"name":"Gaza Strip","latitude":31.41667,"longitude":34.33333,"place_type":"Adm"},{"name":"Pretoria","latitude":-26.08333,"longitude":28.25,"place_type":"Adm"},{"name":"Nairobi","latitude":-1.28333,"longitude":36.81667,"place_type":"City"},{"name":"US","latitude":39.76,"longitude":-98.5,"place_type":"Country"},{"name":"Geneva","latitude":46.16667,"longitude":6.16667,"place_type":"Adm"},{"name":"JERUSALEM","latitude":31.77902,"longitude":35.2253,"place_type":"City"},{"name":"Kilifi","latitude":-3.63045,"longitude":39.84992,"place_type":"City"},{"name":"Mandera","latitude":3.93663,"longitude":41.86701,"place_type":"City"},{"name":"Nyeri","latitude":-0.42013,"longitude":36.94759,"place_type":"City"},{"name":"Rwanda","latitude":-2.0,"longitude":30.0,"place_type":"Country"},{"name":"Africa","latitude":-30.0,"longitude":26.0,"place_type":"Country"},{"name":"Germany","latitude":51.5,"longitude":10.5,"place_type":"Country"},{"name":"Arusha","latitude":-3.36667,"longitude":36.68333,"place_type":"City"}]}