{"people":["Olusegun Obas","Reagan","Mikhail","Mr Geldof","Gorbachev","Mikhail Gor","Bush","Vladimir","Bill Clinton","George W. Bush","Boris Yeltsin","Mr Mbeki","Thabo Mbeki","Ronald","Abdelaziz Bouteflika","Mr Berlusconi","Berlusconi","Alge","Giuseppe Pericu","Mbeki","Friday                    Mitterrand","Thatcher"],"organizations":["Bank","Reuters","Genoa Mayor","European Union       Bob Geldof","Japan   Carter","Renaissance Ducal Pal","Group","Group of Seven","World Bank","Group of Eight","Geldof            GENOA","defend Group of Seven","United Nations","Group of Five","Ducal Palace","Saturday Nation","Reuters Tele","United"],"places":[{"name":"United States","latitude":39.76,"longitude":-98.5,"place_type":"Country"},{"name":"Nigeria","latitude":10.0,"longitude":8.0,"place_type":"Country"},{"name":"Mitterrand","latitude":48.82978,"longitude":2.37708,"place_type":"RailRoadStation"},{"name":"West","latitude":30.86017,"longitude":72.31976,"place_type":"Adm"},{"name":"England","latitude":54.0,"longitude":-4.0,"place_type":"Country"},{"name":"Europe","latitude":43.5333,"longitude":3.9833,"place_type":"Hotel"},{"name":"Italy","latitude":42.83333,"longitude":12.83333,"place_type":"Country"},{"name":"London","latitude":51.50853,"longitude":-0.12574,"place_type":"City"},{"name":"Rambouillet","latitude":48.58333,"longitude":1.91667,"place_type":"Adm"},{"name":"France","latitude":46.0,"longitude":2.0,"place_type":"Country"},{"name":"Ethiopia","latitude":8.0,"longitude":38.0,"place_type":"Country"},{"name":"Puerto Rico","latitude":18.24829,"longitude":-66.49989,"place_type":"Country"},{"name":"Senegal","latitude":14.0,"longitude":-14.0,"place_type":"Country"},{"name":"Rome","latitude":41.96667,"longitude":12.66667,"place_type":"Adm"},{"name":"South Africa","latitude":-30.0,"longitude":26.0,"place_type":"Country"},{"name":"San Juan","latitude":-31.5375,"longitude":-68.53639,"place_type":"City"},{"name":"Versailles","latitude":48.91667,"longitude":2.0,"place_type":"Adm"},{"name":"Britain","latitude":54.0,"longitude":-4.0,"place_type":"Country"},{"name":"US","latitude":39.76,"longitude":-98.5,"place_type":"Country"},{"name":"Gothenburg","latitude":57.7,"longitude":11.91667,"place_type":"Adm"},{"name":"Munich","latitude":48.13743,"longitude":11.57549,"place_type":"City"},{"name":"Houston","latitude":29.73576,"longitude":-95.3064,"place_type":"GisFeature"},{"name":"Tokyo","latitude":35.6895,"longitude":139.69171,"place_type":"Adm"},{"name":"Texas","latitude":31.25044,"longitude":-99.25061,"place_type":"Adm"},{"name":"ROME","latitude":41.96667,"longitude":12.66667,"place_type":"Adm"},{"name":"Lyon","latitude":45.75,"longitude":4.58333,"place_type":"Adm"},{"name":"GENOA","latitude":44.5,"longitude":9.06667,"place_type":"Adm"},{"name":"Canada","latitude":60.0,"longitude":-96.0,"place_type":"Country"},{"name":"Cologne","latitude":50.83333,"longitude":7.16667,"place_type":"Adm"},{"name":"Paris","latitude":48.85339,"longitude":2.34864,"place_type":"Adm"},{"name":"Birmingham","latitude":52.48142,"longitude":-1.89983,"place_type":"City"},{"name":"Okinawa","latitude":26.2125,"longitude":127.68111,"place_type":"City"},{"name":"Ottawa","latitude":45.41117,"longitude":-75.69812,"place_type":"City"},{"name":"Russia","latitude":60.0,"longitude":100.0,"place_type":"Country"},{"name":"Soviet Union","latitude":38.90344,"longitude":-77.03942,"place_type":"Pond"},{"name":"Germany","latitude":51.5,"longitude":10.5,"place_type":"Country"},{"name":"Japan","latitude":35.68536,"longitude":139.7531,"place_type":"Country"},{"name":"Sweden","latitude":62.0,"longitude":15.0,"place_type":"Country"},{"name":"Genoa","latitude":44.5,"longitude":9.06667,"place_type":"Adm"}]}