{"people":["Klbada","Dickson M. Njuki","Southall","Isaac Kigotho Maina","Paul                                                  MAGGIE   Ruprani","Mary Nyawira    Kihara","MR SHAMLAL","DON HOLM"],"organizations":["Telephone Coast","NISSAN","Ksh","Sales & Service","Oase Fountain Pumps","Motorola","TOYOTA","ISUZU","Ngara Post Office Wason Hse","Ericsson","Chege","H & H Services                                                                                                                                               Safari","Celltone Outlet Ltd","IBM","Kabare Girls Secondary School","Anderson    N.    Chabari","SlOCK                          Hairdresser & Tailor","Radio","TOSHIBA","NRB","John                                Call","Nissan Urvan","Nokia","Siemens","Air Time","Pli","Uchumi","Riara Hse Tel.","Nbi","Steam Equipment","COMPAQ"],"places":[{"name":"Naivasha","latitude":-0.71667,"longitude":36.43591,"place_type":"City"},{"name":"Nairobi","latitude":-1.28333,"longitude":36.81667,"place_type":"City"},{"name":"P.O.","latitude":39.66472,"longitude":106.81222,"place_type":"City"},{"name":"EASTLEIGH","latitude":-26.98023,"longitude":26.67272,"place_type":"City"},{"name":"LONDON","latitude":51.50853,"longitude":-0.12574,"place_type":"City"},{"name":"ADDIS Ababa","latitude":9.02497,"longitude":38.74689,"place_type":"City"}]}