{"people":["Tom Mboya","Mr Odinga","Javier Perez de Cuellar","P. R. GITHINJI","Luthuli","Wambua Ndilinge","George Bush","Knut","E. Luvonga Sasaka","TOM O. OKUDHE","James Ramsey Ullm","Kanu","Mr Orengo","Kalli","Japheth Ekidor"],"organizations":["Ndilingfft","City Hall","Congress","Nation","NDP","Raila Odinga","Nkosi Johnson","Foreign Affairs Minister Zachary Onyonka","Provincial Administration"],"places":[{"name":"United States","latitude":39.76,"longitude":-98.5,"place_type":"Country"},{"name":"Turkana","latitude":0.66567,"longitude":37.88974,"place_type":"Hill"},{"name":"Iran","latitude":32.0,"longitude":53.0,"place_type":"Country"},{"name":"West","latitude":30.86017,"longitude":72.31976,"place_type":"Adm"},{"name":"Lebanon","latitude":33.83333,"longitude":35.83333,"place_type":"Country"},{"name":"Europe","latitude":43.5333,"longitude":3.9833,"place_type":"Hotel"},{"name":"Israel","latitude":31.5,"longitude":34.75,"place_type":"Country"},{"name":"Marakwet","latitude":1.08333,"longitude":35.61667,"place_type":"GisFeature"},{"name":"Colombia","latitude":4.0,"longitude":-72.0,"place_type":"Country"},{"name":"Switzerland","latitude":47.00016,"longitude":8.01427,"place_type":"Country"},{"name":"Iraq","latitude":33.0,"longitude":44.0,"place_type":"Country"},{"name":"France","latitude":46.0,"longitude":2.0,"place_type":"Country"},{"name":"Kenya","latitude":1.0,"longitude":38.0,"place_type":"Country"},{"name":"Tanganyika","latitude":-6.0,"longitude":35.0,"place_type":"Country"},{"name":"Kamba","latitude":11.84864,"longitude":3.65761,"place_type":"City"},{"name":"Homa Bay","latitude":-0.52731,"longitude":34.45714,"place_type":"City"},{"name":"South Africa","latitude":-30.0,"longitude":26.0,"place_type":"Country"},{"name":"Nairobi","latitude":-1.28333,"longitude":36.81667,"place_type":"City"},{"name":"North America","latitude":35.50069,"longitude":-80.00032,"place_type":"Adm"},{"name":"East Germany","latitude":51.5,"longitude":13.8,"place_type":"City"},{"name":"Finland","latitude":64.0,"longitude":26.0,"place_type":"Country"},{"name":"Geneva","latitude":46.16667,"longitude":6.16667,"place_type":"Adm"},{"name":"Ngala","latitude":12.33772,"longitude":14.18052,"place_type":"City"},{"name":"Dar-es-Salaam","latitude":-6.83522,"longitude":39.19597,"place_type":"Adm"},{"name":"Persian Gulf","latitude":27.1865,"longitude":56.2808,"place_type":"City"},{"name":"Nyeri","latitude":-0.42013,"longitude":36.94759,"place_type":"City"},{"name":"Medellin Airport","latitude":6.21996,"longitude":-75.59052,"place_type":"Airport"},{"name":"Egypt","latitude":27.0,"longitude":30.0,"place_type":"Country"},{"name":"Cairo","latitude":30.06263,"longitude":31.24967,"place_type":"City"},{"name":"River Road","latitude":35.50683,"longitude":-76.99078,"place_type":"City"},{"name":"Poland","latitude":52.0,"longitude":20.0,"place_type":"Country"},{"name":"Nyahururu","latitude":0.0421,"longitude":36.36734,"place_type":"City"},{"name":"West Pokot","latitude":1.41667,"longitude":35.25,"place_type":"GisFeature"},{"name":"Norway","latitude":62.0,"longitude":10.0,"place_type":"Country"},{"name":"Beirut","latitude":33.88894,"longitude":35.49442,"place_type":"City"},{"name":"The United States","latitude":19.42847,"longitude":-99.12766,"place_type":"City"},{"name":"Sweden","latitude":62.0,"longitude":15.0,"place_type":"Country"}]}