{"people":["Dongo","Redis","Percivale","Jacob Zuma","Thabo Mbeki","Godefroy Hakizimana          Ifr Mbeki","Cota","Mr Hoon","Bemba","Mr Jean Pierre Bemba"],"organizations":["Ubangui        Congolese","Defence Ministry","Royal Fleet                          Party","Congress","Reuters","Mitsubishi FUSO","SACP","AROUND AFRICA  Britain                                                                                                                                                                                          ANC","Congolese Liberation","Parachute  Regiment","British Defence","BBC","PSD","National Congress","South African    Trade Unions","Associated Press","Dongo       Republic of Congo","Nyayo Stadium Nairobi","United Na","Congo              Nelson Mandela","ANC","Sierra Leone","Congo","Laurent Kabila"],"places":[{"name":"Britain","latitude":54.0,"longitude":-4.0,"place_type":"Country"},{"name":"Freetown","latitude":8.484,"longitude":-13.22994,"place_type":"City"},{"name":"Burundi","latitude":-3.5,"longitude":30.0,"place_type":"Country"},{"name":"Sierra Leone","latitude":8.5,"longitude":-11.5,"place_type":"Country"},{"name":"LONDON","latitude":51.50853,"longitude":-0.12574,"place_type":"City"},{"name":"South Africa","latitude":-30.0,"longitude":26.0,"place_type":"Country"},{"name":"Congo","latitude":0.0,"longitude":25.0,"place_type":"Country"},{"name":"Gemena","latitude":3.25,"longitude":19.76667,"place_type":"City"},{"name":"Pretoria","latitude":-26.08333,"longitude":28.25,"place_type":"Adm"},{"name":"PRETORIA","latitude":-26.08333,"longitude":28.25,"place_type":"Adm"},{"name":"KIGALI","latitude":-1.94995,"longitude":30.05885,"place_type":"City"}]}