{"people":["James Mwangi","Mr Owiti","Jack","Kibe Wanaruona","Mr Ogwang","STEPHEN         MUIRURI","Barnabas","Lucy Saliku Mukhogo","Mr Morris Masawa","Maluki","Mr Peter Owiti","Lavington","Joseph Kibwana","Kamanthe Nyamai","Judge Andrew Hayanga","Mrs Hawa Lul Bashir","Kagunduini","Desai","Mr Jeremiah Mbogoro","Mr F. Wagara","Mary Wanjiku","Patrick Oregi","Mbovi","Mrs Nancy  Njeri Maina"],"organizations":["Shl","Tudor","National Aids Control Council","Commissioner     of Lands","Mombasa Municipal","Mburu","Kenya Insurers","Flying Squad","Coast General","KBL","Mombasa Bricks","Toyota","Department of Defence","Director of Medical Services","Police","Middle East Bank Building","Muthangari                                                                                                                                Corolla","Kenya Breweries","American Express","Gaichanjiru High School","OCS Twenty","Maizane Millers                                                                                                                                                                                                             Richard Muga","Hilton Hotelloby","National Disaster                                                                                                                       Maragua District Criminal Investigations","Tusker Village","Mafuta Refineries Limited","National","Health Ministry","Dozens of General Service","PCEA Kinyoho Church","WEQ","Mafuta Refineries Limited                                                                 Nyamongo","Nissan Sunny"],"places":[{"name":"Maragua","latitude":-0.78333,"longitude":37.13333,"place_type":"City"},{"name":"Nairobi","latitude":-1.28333,"longitude":36.81667,"place_type":"City"},{"name":"Jj.","latitude":18.8125,"longitude":-96.82083,"place_type":"City"},{"name":"Brazil","latitude":-10.0,"longitude":-55.0,"place_type":"Country"},{"name":"Amboseli","latitude":-2.66667,"longitude":37.28333,"place_type":"City"},{"name":"Mombasa","latitude":-4.05466,"longitude":39.66359,"place_type":"City"},{"name":"India","latitude":20.0,"longitude":77.0,"place_type":"Country"}]}