{"people":["Mrs Jacinta Ruguru","Rudolph Giuliani","Mr Rod Eddington","Sacco","Nicholas Biwott","Daniel Toroitich","Ernest Saina"],"organizations":["NACC","Council","Photo/Nick Muhindi","Post Bank","Moi                                                                                                                           CGH","Civil Aviation Authority","DGAC","Armed Forces of","Board of Directors","NSS","~                                                             Armed Forces","British Airways","Heath","National Hospital Insurance Fund","Management and Staff of NHIF Congratulate              Staff","Nairobi                Kenyalla Day","Republic of Kenya","Ministry of Roads","National AIDS Control Council                                                                                                                             H.E."],"places":[{"name":"New York                                                                                                                                                                  Public Works","latitude":40.79205,"longitude":-73.7043,"place_type":"GisFeature"},{"name":"Nairobi","latitude":-1.28333,"longitude":36.81667,"place_type":"City"},{"name":"US","latitude":39.76,"longitude":-98.5,"place_type":"Country"},{"name":"Nyamira","latitude":-0.56667,"longitude":34.91667,"place_type":"School"},{"name":"John F. Kennedy","latitude":18.19412,"longitude":-67.15296,"place_type":"City"},{"name":"Barbados","latitude":13.16667,"longitude":-59.53333,"place_type":"Country"},{"name":"Korea","latitude":37.0,"longitude":127.5,"place_type":"Country"},{"name":"London","latitude":51.50853,"longitude":-0.12574,"place_type":"City"},{"name":"Heathrow","latitude":28.76333,"longitude":-81.37224,"place_type":"City"},{"name":"New York","latitude":43.00035,"longitude":-75.4999,"place_type":"Adm"},{"name":"Kenya","latitude":1.0,"longitude":38.0,"place_type":"Country"},{"name":"South Korea","latitude":37.0,"longitude":127.5,"place_type":"Country"}]}