{"people":["Raccardo Darquini","D'Angelo","Barbara Cohn","Giovan Battista Serra","Flavia D'Angelo"],"organizations":["Kenya Airways","Public Health Insti","KLM","Domenico Antonio Latino","Carol"],"places":[{"name":"California","latitude":37.25022,"longitude":-119.75126,"place_type":"Adm"},{"name":"Nairobi","latitude":-1.28333,"longitude":36.81667,"place_type":"City"},{"name":"San Francisco","latitude":37.77668,"longitude":-122.42031,"place_type":"GisFeature"},{"name":"Mandi","latitude":32.58339,"longitude":73.48432,"place_type":"City"},{"name":"Berkeley","latitude":33.1835,"longitude":-79.9498,"place_type":"Adm"},{"name":"Heathrow London","latitude":51.4815,"longitude":-0.4383,"place_type":"Hotel"},{"name":"Rome","latitude":41.96667,"longitude":12.66667,"place_type":"Adm"},{"name":"Schiphol    Amsterdam","latitude":52.2967,"longitude":4.708,"place_type":"Hotel"},{"name":"Europe","latitude":43.5333,"longitude":3.9833,"place_type":"Hotel"},{"name":"Central Park","latitude":46.97343,"longitude":-123.69239,"place_type":"City"}]}