{"people":["Paul Redfern","Susan Wangechi","Mr William ole Ntimama","Mr Gor","Evans Gor","Molo","Mr Richard                                                                                                                                          Githinji","Panos","Peter Musa"],"organizations":["National Aids Control","Nation                                                                                                                                          Correspondent","Osho Chemical","All Kenya Enterprising Youths","Cascia Women Group","Mwea Division","Osho Chemical Industries                                                                                                                                          Limited"],"places":[{"name":"Nairobi","latitude":-1.28333,"longitude":36.81667,"place_type":"City"},{"name":"Kenya","latitude":1.0,"longitude":38.0,"place_type":"Country"},{"name":"Madoya","latitude":-8.6624,"longitude":117.5234,"place_type":"Stream"},{"name":"Gambia","latitude":13.5,"longitude":-15.5,"place_type":"Country"},{"name":"East Africa","latitude":-18.25,"longitude":35.0,"place_type":"Country"},{"name":"Kilifi","latitude":-3.63045,"longitude":39.84992,"place_type":"City"},{"name":"Africa","latitude":-30.0,"longitude":26.0,"place_type":"Country"},{"name":"South Africa","latitude":-30.0,"longitude":26.0,"place_type":"Country"},{"name":"Kariobangi","latitude":-1.25,"longitude":36.88333,"place_type":"City"},{"name":"London","latitude":51.50853,"longitude":-0.12574,"place_type":"City"}]}