{"people":["Mr Ruprah","Mr Peter Blomkamp","Judici","Richard Colonno","Joseph Kabila","Teresa Cormack","Sanjivan Ruprah"],"organizations":["Interior Ministry","GCE","Schering Plough","University of California","Reuters","Trimeris","Society for Protection and                                                                                                                                                     Care of Animals","Ninth","Justice","Consolidated Bank of Kenya","Democratic Republic of Congo    Scientists"],"places":[{"name":"Nairobi","latitude":-1.28333,"longitude":36.81667,"place_type":"City"},{"name":"WELLINGTON","latitude":-41.28333,"longitude":174.76666,"place_type":"Adm"},{"name":"San Diego","latitude":33.03338,"longitude":-116.80086,"place_type":"Adm"},{"name":"US","latitude":39.76,"longitude":-98.5,"place_type":"Country"},{"name":"CHRISTCHURCH","latitude":-43.53333,"longitude":172.63333,"place_type":"City"},{"name":"Nairobi Kenya","latitude":-1.28333,"longitude":36.81667,"place_type":"City"},{"name":"Nyeri","latitude":-0.42013,"longitude":36.94759,"place_type":"City"},{"name":"NYERI","latitude":-0.42013,"longitude":36.94759,"place_type":"City"},{"name":"Italy","latitude":42.83333,"longitude":12.83333,"place_type":"Country"},{"name":"Sun City","latitude":22.456,"longitude":113.0482,"place_type":"City"},{"name":"Cambodia","latitude":13.0,"longitude":105.0,"place_type":"Country"},{"name":"Roche","latitude":36.76639,"longitude":3.47717,"place_type":"City"},{"name":"Belgium","latitude":50.83333,"longitude":4.0,"place_type":"Country"},{"name":"WASHINGTON","latitude":47.50012,"longitude":-120.50147,"place_type":"Adm"},{"name":"Rome","latitude":41.96667,"longitude":12.66667,"place_type":"Adm"},{"name":"Lower Hutt","latitude":-41.21667,"longitude":174.91667,"place_type":"City"},{"name":"Muranga","latitude":-2.70306,"longitude":29.13056,"place_type":"Mountain"},{"name":"MURANGA","latitude":-2.70306,"longitude":29.13056,"place_type":"Mountain"},{"name":"South Africa","latitude":-30.0,"longitude":26.0,"place_type":"Country"},{"name":"PHNOM PENH","latitude":11.56245,"longitude":104.91601,"place_type":"City"},{"name":"New Zealand","latitude":-42.0,"longitude":174.0,"place_type":"Country"}]}