{"people":["Michael Klol","Peter Ng","Ebby Kamila Anyamba"],"organizations":["Family Education                         Preparatory   Programme","Ruiru Township","Mwaghoti Mwanyasl Mwasaru T/A Riggs Services","Ushirika Estate","Bachelor of Science","Kagundu T/A Action Cargo Services","Graduate Diploma in Insurance                    Registrar","Land Control Board","Master     of Human Resource Management 2","Commerce                                   E-Mail","Prabhagaurl Shashlkant Maru","Redhill Joseph Kamanu Nganga of P.O. Box                                                                                                                + Diploma","Distance Education","Postgraduate   Certificate","KIAMBU                                                                                                       Resettlement   and Rehabilitation                         + Certificate","Finance Operations","Tigoni Road","Directorate of Open Learning","RUIRU TOWN                                                                                                                                               Kenyatta University","Human Resource Development                     Further","Pradeep Maru Motor Services of P.O.","Youth and Development Work","House","Philosophy    in Education                        + Bachelor of Tech"],"places":[{"name":"Nairobi","latitude":-1.28333,"longitude":36.81667,"place_type":"City"},{"name":"Redhill","latitude":51.24048,"longitude":-0.17044,"place_type":"City"},{"name":"Limuru","latitude":-1.1,"longitude":36.65,"place_type":"City"},{"name":"L.R.","latitude":40.95832,"longitude":-105.14081,"place_type":"Camp"},{"name":"KIAMBU","latitude":-1.16667,"longitude":36.83333,"place_type":"City"},{"name":"Kilifi District","latitude":-3.25,"longitude":39.66667,"place_type":"Adm"},{"name":"Machakos","latitude":-1.51667,"longitude":37.26667,"place_type":"City"},{"name":"Mtondia Location","latitude":-3.56667,"longitude":39.86667,"place_type":"GisFeature"},{"name":"Mombasa","latitude":-4.05466,"longitude":39.66359,"place_type":"City"}]}