{"people":["Mr Kimani","Mr Arafat","Kamau","Joshua Kipkemboi","Boeringer Ingeil","Muigai","Ken","Mr Yasser Arafat","Mzee Jomo","Joe Mbuthia","James Kieya","Elly Rono","Daniel                                                                                                                                                                                              Kinuthia","Freeman Ngengi Kamau","Dick Waweru","Nicholas Biwott","Goodall","Jimmy Mihari","Jane Goodall","Johnstone Kamau","Biwott","Mr Sharon","David Shipler"],"organizations":["Essential Medicines","Health            Bhatt of Eldoret","Trade-Related Aspects of Intellectual                                                                             Industry","Laboratory and Allied","IPA","Uhuru","Pharmacy and Poisons Board","Ministry of Health","Ministry of Trade","Boston Mara","New York Times","Sec","Sharon","Government","Martin Luther King Jr","Universal Pharmacy","PLO","Kenyan Embassy","Prime Minister Ariel Sharon                                                                         Lake Tanganyika","Board","Cosmos Ltd.","Kenyatta","Wildlife Research","World Trade Organisation's                                                                              Parliament","Mahatma Gandhi","United Nations Messenger of            Lazarus Njagi Migua of Nairobi"],"places":[{"name":"Britain","latitude":54.0,"longitude":-4.0,"place_type":"Country"},{"name":"United States","latitude":39.76,"longitude":-98.5,"place_type":"Country"},{"name":"Nairobi","latitude":-1.28333,"longitude":36.81667,"place_type":"City"},{"name":"North America","latitude":35.50069,"longitude":-80.00032,"place_type":"Adm"},{"name":"US","latitude":39.76,"longitude":-98.5,"place_type":"Country"},{"name":"Tanzania","latitude":-6.0,"longitude":35.0,"place_type":"Country"},{"name":"Washington","latitude":47.50012,"longitude":-120.50147,"place_type":"Adm"},{"name":"Nakuru","latitude":-0.28333,"longitude":36.06667,"place_type":"City"},{"name":"Boston","latitude":42.35347,"longitude":-71.06094,"place_type":"GisFeature"},{"name":"Europe","latitude":43.5333,"longitude":3.9833,"place_type":"Hotel"},{"name":"Israel","latitude":31.5,"longitude":34.75,"place_type":"Country"},{"name":"America","latitude":39.76,"longitude":-98.5,"place_type":"Country"},{"name":"Gombe","latitude":10.25,"longitude":11.16667,"place_type":"Adm"},{"name":"Kenya","latitude":1.0,"longitude":38.0,"place_type":"Country"},{"name":"San Francisco Bay","latitude":37.5222,"longitude":-122.2599,"place_type":"Hotel"},{"name":"Ruai","latitude":4.0476,"longitude":101.6795,"place_type":"City"},{"name":"Kamiti","latitude":-1.21667,"longitude":37.03333,"place_type":"Stream"},{"name":"Russia","latitude":60.0,"longitude":100.0,"place_type":"Country"},{"name":"Ltd.","latitude":53.99565,"longitude":-1.00311,"place_type":"Hospital"},{"name":"Middle East","latitude":41.06665,"longitude":-104.65996,"place_type":"GisFeature"},{"name":"Japan","latitude":35.68536,"longitude":139.7531,"place_type":"Country"}]}