{"people":["Oneko","Shopstewards Philip Lobenyo","Mr Jitain Shah","Doris Gathoni","Anthony Kamau","Balama","Michael Butler","Kalele Balama","Brenda Kinya","Juma Twanga","Ambrose","Daniel Gai Mojo","Jonas","William Morrison","David Kironye","Pauline Wairimu Kimuhu","Raphael Munavu","Urithi"],"organizations":["Trikha Girls' Secondary School","Kenya Breweries","Cathybridge School","Media Group","NATION Reporters","Kipsigis County Hall","Jain Youth","Welfare Association","Schools Daniel can Army","Inmarsat Safari Rally","District Development Committee","Moi University","Muguru Secondary School","Safari Rally","WRC","Senate","Spanish Government","ISC","NATION Correspondents","World Rally Championship","Central Province","Kericho District Hospital","Inmarsat","International Sportsworld Communicators"],"places":[{"name":"KENYA","latitude":1.0,"longitude":38.0,"place_type":"Country"},{"name":"Nairobi","latitude":-1.28333,"longitude":36.81667,"place_type":"City"},{"name":"Ameri","latitude":6.17423,"longitude":8.13592,"place_type":"City"},{"name":"Kenya","latitude":1.0,"longitude":38.0,"place_type":"Country"},{"name":"Ceres","latitude":39.52205,"longitude":-6.37482,"place_type":"Adm"},{"name":"Kisii","latitude":-0.68174,"longitude":34.76666,"place_type":"City"},{"name":"Spain","latitude":40.0,"longitude":-4.0,"place_type":"Country"},{"name":"Nakuru","latitude":-0.28333,"longitude":36.06667,"place_type":"City"},{"name":"Kisumu","latitude":-0.10221,"longitude":34.76171,"place_type":"City"},{"name":"India","latitude":20.0,"longitude":77.0,"place_type":"Country"},{"name":"Thika","latitude":-1.03326,"longitude":37.06933,"place_type":"City"}]}