{"people":["Joel Sang","Kylie Minogue","Pete Waterman","Kenneth","Elivet Gbagbo","Hurn","Peter Njeru","Masuzgo","Gideon Byamugisha","Paul Livingstone Tito Omukuba","Ghai","Kaunda","Ashwin Patel","Mr Udoto","Yash Ghai","Joseph Mwli1ukuku","Margaret Njuguna"],"organizations":["Slim Shady LP","Akolo","Ukimwi Mbaya","Parliament","Parliamentary Select Committee","Nai","Abuna David","Former Ghana President Jerry Rawlings","Dunia Mbaya","International Herald Tribune","Lions Club of Nakuru","BBC","Ms Beatrice Akolo of                                                                         Uganda","United Nations","Research","Nairobi University","Nakuru Club","Gipa Principle","Radio Times","Marshall Mathers","Review Commission","Kilifi District Officer","NGO","Daily Nation                                                                   This","Provide International Hospital","National                                                                     This","Commission","City Hall","Eminem","First Lady of Cote","Jomo Kenyatta International Airport","United      Neighbours","The Commission"],"places":[{"name":"Britain","latitude":54.0,"longitude":-4.0,"place_type":"Country"},{"name":"Kitale","latitude":1.01572,"longitude":35.00622,"place_type":"City"},{"name":"Nairobi","latitude":-1.28333,"longitude":36.81667,"place_type":"City"},{"name":"Kenya","latitude":1.0,"longitude":38.0,"place_type":"Country"},{"name":"Nakuru","latitude":-0.28333,"longitude":36.06667,"place_type":"City"},{"name":"Eastlands","latitude":-30.50903,"longitude":29.82775,"place_type":"City"},{"name":"Kigali","latitude":-1.94995,"longitude":30.05885,"place_type":"City"},{"name":"Mombasa","latitude":-4.05466,"longitude":39.66359,"place_type":"City"}]}