{"people":["Paul O'Neill","Thabo","Dalmas","Zanaco","Johann Viljoen","Chiluba","Tavanic","Trevor       Dr Viljoen","Manuel","LIZ GITONGA","John Munyu","Hiroshi Yamashita","Kanu","Mr O'Neill","Otieno","Bono","Viljoen","Mathenge","Mbeki"],"organizations":["Finance Ministry","Aventis","National Sales Manager","Reuters","US Treasury","NOP","Enron","Texas State Board of Pub","Central Bank","National Commercial","Arthur Andersen LLP","Central Bank of","Agency","Daily N~"],"places":[{"name":"Nairobi","latitude":-1.28333,"longitude":36.81667,"place_type":"City"},{"name":"Ghana","latitude":8.0,"longitude":-2.0,"place_type":"Country"},{"name":"US","latitude":39.76,"longitude":-98.5,"place_type":"Country"},{"name":"New Kanu","latitude":-5.07905,"longitude":151.44225,"place_type":"Stream"},{"name":"Texas","latitude":31.25044,"longitude":-99.25061,"place_type":"Adm"},{"name":"Zanaco","latitude":37.58333,"longitude":-8.25,"place_type":"Hill"},{"name":"America","latitude":39.76,"longitude":-98.5,"place_type":"Country"},{"name":"LUSAKA","latitude":-15.40669,"longitude":28.28713,"place_type":"City"},{"name":"Zambia","latitude":-15.0,"longitude":30.0,"place_type":"Country"},{"name":"Africa","latitude":-30.0,"longitude":26.0,"place_type":"Country"},{"name":"South Africa","latitude":-30.0,"longitude":26.0,"place_type":"Country"},{"name":"Japan","latitude":35.68536,"longitude":139.7531,"place_type":"Country"}]}