{"people":["Michel Sabbah","John Paul","Inocencio   Arias","Roger Etchegaray","Gilbert Laurin","Joaquin Navarro-Valls","Carol Bellamy","Sabbah","Cather"],"organizations":["United Nations Children","International Organisation of                                                                                                                                                                                  VATICAN","Business Administration","British Airways Ticketing","ACP Diploma 111Programmll1g & System Design","Business Studies Diploma","& Hf","Diploma in Hotel Management","British University                                                                      Whisky","Vodka & Rum                                                                                          Cantonese","European Union","Vatican","Hospltahty Management","House","BT                                                                                                                                                           Tuition","Nativity Church","CTHCM Diploma in                                                                                                                                     Travel Agency Management","ACP Advanced Diploma","Parliament House"],"places":[{"name":"Nairobi","latitude":-1.28333,"longitude":36.81667,"place_type":"City"},{"name":"US","latitude":39.76,"longitude":-98.5,"place_type":"Country"},{"name":"JERUSALEM","latitude":31.77902,"longitude":35.2253,"place_type":"City"},{"name":"Spain","latitude":40.0,"longitude":-4.0,"place_type":"Country"},{"name":"England","latitude":54.0,"longitude":-4.0,"place_type":"Country"},{"name":"West London","latitude":51.36667,"longitude":-0.01667,"place_type":"City"},{"name":"Europe","latitude":43.5333,"longitude":3.9833,"place_type":"Hotel"},{"name":"Israel","latitude":31.5,"longitude":34.75,"place_type":"Country"},{"name":"Isreal","latitude":41.1951,"longitude":-73.21734,"place_type":"Library"},{"name":"London","latitude":51.50853,"longitude":-0.12574,"place_type":"City"},{"name":"India","latitude":20.0,"longitude":77.0,"place_type":"Country"},{"name":"Bethlehem","latitude":-28.23078,"longitude":28.30707,"place_type":"City"},{"name":"Holy                                                                                                 BETHLEHEM","latitude":36.10444,"longitude":-78.91833,"place_type":"Religious"},{"name":"New York","latitude":43.00035,"longitude":-75.4999,"place_type":"Adm"},{"name":"Canada","latitude":60.0,"longitude":-96.0,"place_type":"Country"},{"name":"Woodland      Hills","latitude":40.01532,"longitude":-111.64868,"place_type":"City"},{"name":"Cyprus","latitude":35.0,"longitude":33.0,"place_type":"Country"},{"name":"LONDON","latitude":51.50853,"longitude":-0.12574,"place_type":"City"},{"name":"Mayfair","latitude":-42.76667,"longitude":147.01666,"place_type":"Rail"},{"name":"Gaza Strip","latitude":31.41667,"longitude":34.33333,"place_type":"Adm"},{"name":"Middle East","latitude":41.06665,"longitude":-104.65996,"place_type":"GisFeature"},{"name":"Somalia","latitude":6.0,"longitude":48.0,"place_type":"Country"}]}