{"people":["Mrs Pretty","Monro","Mr Taylor","Bob Bax","Jennifer Murray"],"organizations":["Commonwealth          Association","Euthanasia Group","Justice Kasanga Mulwa","Commonwealth","Responsibilities of Directors","Monrovia                                                 Assisted suicide                                                                                                                          Machakos School"],"places":[{"name":"Britain","latitude":54.0,"longitude":-4.0,"place_type":"Country"},{"name":"Liberia","latitude":6.5,"longitude":-9.5,"place_type":"Country"},{"name":"Monrovia","latitude":6.30054,"longitude":-10.7969,"place_type":"City"},{"name":"Nairobi.","latitude":-1.28333,"longitude":36.81667,"place_type":"City"},{"name":"Europe","latitude":43.5333,"longitude":3.9833,"place_type":"Hotel"},{"name":"MONROVIA","latitude":6.30054,"longitude":-10.7969,"place_type":"City"},{"name":"Kabete","latitude":-1.25,"longitude":36.73333,"place_type":"School"},{"name":"Artington","latitude":51.2158,"longitude":-0.59212,"place_type":"Adm"}]}