{"people":["Daniel Muli Kangutu","Mr Dar","Abdul Ghani Lone","Mr Shah","Perminus Wainaina","Atal Behari Vajpayee","Mr Farooq"],"organizations":["When United Nations","Bachelor of Commerce","Fifa","Jackson Nderitu","Kenya Football Federation","All Party Hurri","Parliament","EU","Hizbul Mujahideen","Nairobi University"],"places":[{"name":"Seoul","latitude":37.56826,"longitude":126.97783,"place_type":"City"},{"name":"United States","latitude":39.76,"longitude":-98.5,"place_type":"Country"},{"name":"Nairobi","latitude":-1.28333,"longitude":36.81667,"place_type":"City"},{"name":"Nigeria","latitude":10.0,"longitude":8.0,"place_type":"Country"},{"name":"Pakistan","latitude":30.0,"longitude":70.0,"place_type":"Country"},{"name":"Cape Town","latitude":-33.92584,"longitude":18.42322,"place_type":"City"},{"name":"Johannesburg","latitude":-26.20227,"longitude":28.04363,"place_type":"City"},{"name":"India","latitude":20.0,"longitude":77.0,"place_type":"Country"},{"name":"France","latitude":46.0,"longitude":2.0,"place_type":"Country"},{"name":"Egypt","latitude":27.0,"longitude":30.0,"place_type":"Country"},{"name":"Perm","latitude":59.0,"longitude":57.0,"place_type":"Adm"},{"name":"Kenya","latitude":1.0,"longitude":38.0,"place_type":"Country"},{"name":"Canada","latitude":60.0,"longitude":-96.0,"place_type":"Country"},{"name":"Senegal","latitude":14.0,"longitude":-14.0,"place_type":"Country"},{"name":"Kashmir","latitude":33.0,"longitude":77.0,"place_type":"Adm"},{"name":"Africa","latitude":-30.0,"longitude":26.0,"place_type":"Country"},{"name":"New Delhi","latitude":28.63576,"longitude":77.22445,"place_type":"City"},{"name":"South Africa","latitude":-30.0,"longitude":26.0,"place_type":"Country"},{"name":"Algeria","latitude":28.0,"longitude":3.0,"place_type":"Country"}]}