{"people":["Vanessa Carreira","Justine Pasek","Hilliard McMillan","Vladimir","Mrs Ann Owiti","Theresa Beyer","Angelo D'Agostino","Denise Quinones","Oxana","Mr Musa Ali"],"organizations":["Miss Universe","Blessed Sacrament","Nyumbani Children","National Aids Control Council","Imani Children's Home","Toyota","Global Health Council","Nyumbani Children's Home","Kibera Community Self-Help Programme","Miss Universe Organisation","Oxana"],"places":[{"name":"Panama","latitude":9.0,"longitude":-80.0,"place_type":"Country"},{"name":"Nairobi","latitude":-1.28333,"longitude":36.81667,"place_type":"City"},{"name":"New York","latitude":43.00035,"longitude":-75.4999,"place_type":"Adm"},{"name":"Kenya","latitude":1.0,"longitude":38.0,"place_type":"Country"},{"name":"Puerto Rico","latitude":18.24829,"longitude":-66.49989,"place_type":"Country"},{"name":"Kibera","latitude":0.65,"longitude":28.76667,"place_type":"City"},{"name":"Calcutta","latitude":22.56972,"longitude":88.36972,"place_type":"City"},{"name":"Karen","latitude":17.5,"longitude":97.75,"place_type":"Adm"},{"name":"Africa","latitude":-30.0,"longitude":26.0,"place_type":"Country"},{"name":"South Africa","latitude":-30.0,"longitude":26.0,"place_type":"Country"},{"name":"St Petersburg","latitude":59.89444,"longitude":30.26417,"place_type":"City"},{"name":"China","latitude":35.0,"longitude":105.0,"place_type":"Country"},{"name":"India","latitude":20.0,"longitude":77.0,"place_type":"Country"}]}