{"people":["Terrence Higgins Trust","Milly Katana","Koff","Ndinya Achola","VIII","Wayne Koff","Nduati","Mr Andrew Ridley","Michael","Ruth"],"organizations":["Certificate       Course","Kenya Aids Vaccine Initia","College of Insurance","Eastern","NY AM IRA","Reuters","ManagerZone VI                                                                                                                                         KagweLeaf Base                          MunganiaLeaf Base","VaxGen Inc","College Campus","Litein                             Certificate          of Proficiency","HeadOffice                     KangaitaLeaf Base                              Nyankoba Leaf Base","Oxford University","Ground Floor of KTDA Lid Head Office","Seth Berkley","Insurance Agents","Josgid Warehouse","KanyenyainiLeaf Base","Insurance         Training and Education        Trust Page","Commissioner of Insurance as Insurance Agents","Interna","University of Nairobi","Tea Development Agency Ltd."],"places":[{"name":"Gucha","latitude":38.48333,"longitude":71.01667,"place_type":"City"},{"name":"Nairobi","latitude":-1.28333,"longitude":36.81667,"place_type":"City"},{"name":"US","latitude":39.76,"longitude":-98.5,"place_type":"Country"},{"name":"Spain","latitude":40.0,"longitude":-4.0,"place_type":"Country"},{"name":"P.O.","latitude":39.66472,"longitude":106.81222,"place_type":"City"},{"name":"Mo.","latitude":-18.25,"longitude":35.0,"place_type":"Country"},{"name":"Barcelona","latitude":41.66667,"longitude":2.0,"place_type":"Adm"},{"name":"Uganda","latitude":2.0,"longitude":33.0,"place_type":"Country"},{"name":"BARCELONA","latitude":41.66667,"longitude":2.0,"place_type":"Adm"},{"name":"Mombasa Road","latitude":-1.46667,"longitude":37.03333,"place_type":"Road"},{"name":"NYERI","latitude":-0.42013,"longitude":36.94759,"place_type":"City"},{"name":"City","latitude":19.42847,"longitude":-99.12766,"place_type":"City"},{"name":"London","latitude":51.50853,"longitude":-0.12574,"place_type":"City"},{"name":"NAIROBI","latitude":-1.28333,"longitude":36.81667,"place_type":"City"},{"name":"Kenya","latitude":1.0,"longitude":38.0,"place_type":"Country"},{"name":"Kisii","latitude":-0.68174,"longitude":34.76666,"place_type":"City"},{"name":"KIAMBU","latitude":-1.16667,"longitude":36.83333,"place_type":"City"},{"name":"South Africa","latitude":-30.0,"longitude":26.0,"place_type":"Country"},{"name":"Kapsabet","latitude":0.20387,"longitude":35.105,"place_type":"City"}]}