{"people":["KIMANI","Charles Kiarie","Margaret Thatcher","Paul Kelleher","Chuck Zehnder","Ken","Muthoni Bwika","Jacqueline Okeeh","George Kamau","Wainaina","MARY ROBINSON","Neil Simmons","Jaap Krijger","Mr Michaellgnatieff"],"organizations":["House of Com","Geneva Conventions","Former Miss Tourism Debra Sanaipei","Kenyatta National","National Aids Control Council","UNAids","Carr Centre of Human Rights Policy","Security Council","John F. Kennedy School of Government","Watchman","United                                                i.","Nations","Times Syndicate International","Democratic                                                                                 Media Services","Us Government","World Bank","Government","Criminal Court","Macharia of Thika","American Government","Interna","Congo","Retirements Benefits Authority"],"places":[{"name":"Britain","latitude":54.0,"longitude":-4.0,"place_type":"Country"},{"name":"Nairobi","latitude":-1.28333,"longitude":36.81667,"place_type":"City"},{"name":"Miami","latitude":26.00002,"longitude":-80.1947,"place_type":"GisFeature"},{"name":"US","latitude":39.76,"longitude":-98.5,"place_type":"Country"},{"name":"Pakistan","latitude":30.0,"longitude":70.0,"place_type":"Country"},{"name":"Missouri","latitude":38.25031,"longitude":-92.50046,"place_type":"Adm"},{"name":"Atlanta","latitude":33.73119,"longitude":-84.38324,"place_type":"GisFeature"},{"name":"Europe","latitude":43.5333,"longitude":3.9833,"place_type":"Hotel"},{"name":"Afghanistan","latitude":33.0,"longitude":66.0,"place_type":"Country"},{"name":"Florida","latitude":28.75054,"longitude":-82.5001,"place_type":"Adm"},{"name":"London","latitude":51.50853,"longitude":-0.12574,"place_type":"City"},{"name":"India","latitude":20.0,"longitude":77.0,"place_type":"Country"},{"name":"America","latitude":39.76,"longitude":-98.5,"place_type":"Country"},{"name":"Kenya","latitude":1.0,"longitude":38.0,"place_type":"Country"},{"name":"Brazil","latitude":-10.0,"longitude":-55.0,"place_type":"Country"},{"name":"Branson","latitude":36.64367,"longitude":-93.21851,"place_type":"City"},{"name":"Middle East","latitude":41.06665,"longitude":-104.65996,"place_type":"GisFeature"}]}