{"people":["Mr Moi","Mr Peter          Uhuru Kenyatta","Sheikh Omar Abdel-Rahman","BERNARD GITONGA","Frederick Chiluba","Mr Kibaki","Nyabondo                                                                                                                                                               CHARLES G. MUNYORI","Mr Chiluba","Odoyo","Simeon Nyachae-Paul Muite","Ngugi","Richard Leakey","Allan Ngugi","Mikhail Gorbachev","Kanu","Mr   Mwai"],"organizations":["Mama Ngina","NACC","Martha Wangechi","Aids Control     Council","The German Army","Uhuru Kenyatta","Nyong","Control Council","Gatundu South                                   Nairobi","Nyabondo Mission                                                                                                                                   Nairobi","Gatundu South","Ministry of Public Works","Kenya Roads Board","NGOs","United Nations","National Alliance","KPC","General Election","International Court of Justice","Kenya Auto Bazaar Association","Committee","Nyando District Development","Kenya Bureau of Stand","Nyakach Division","Hospital","National Aids                                                      Chiluba","Union","Uhuru","Gulf","Kenya Wildlife Service                                                                                       Kenya Wildlife Service","Gatundu Hospital","National","The Sudanese Peoples Liberation Army","Mzee Kenyatta","Since Parliament","USA","NAC","Task Force","Nyakach Girls","Woolf","Partnership for African Development                                         Suez Canal"],"places":[{"name":"United States","latitude":39.76,"longitude":-98.5,"place_type":"Country"},{"name":"Nyamira","latitude":-0.56667,"longitude":34.91667,"place_type":"School"},{"name":"Missouri","latitude":38.25031,"longitude":-92.50046,"place_type":"Adm"},{"name":"Anyang","latitude":36.09944,"longitude":114.32889,"place_type":"City"},{"name":"California","latitude":37.25022,"longitude":-119.75126,"place_type":"Adm"},{"name":"Liberia","latitude":6.5,"longitude":-9.5,"place_type":"Country"},{"name":"San Francisco","latitude":37.77668,"longitude":-122.42031,"place_type":"GisFeature"},{"name":"Kenya","latitude":1.0,"longitude":38.0,"place_type":"Country"},{"name":"Soviet State","latitude":42.17975,"longitude":73.96234,"place_type":"City"},{"name":"Stalingrad","latitude":48.71939,"longitude":44.50184,"place_type":"City"},{"name":"York City","latitude":40.71427,"longitude":-74.00597,"place_type":"City"},{"name":"Britain","latitude":54.0,"longitude":-4.0,"place_type":"Country"},{"name":"Nairobi","latitude":-1.28333,"longitude":36.81667,"place_type":"City"},{"name":"US","latitude":39.76,"longitude":-98.5,"place_type":"Country"},{"name":"Egypt","latitude":27.0,"longitude":30.0,"place_type":"Country"},{"name":"Rhodesia","latitude":-15.0,"longitude":30.0,"place_type":"Country"},{"name":"Paris","latitude":48.85339,"longitude":2.34864,"place_type":"Adm"},{"name":"Africa","latitude":-30.0,"longitude":26.0,"place_type":"Country"},{"name":"Cameroon","latitude":6.0,"longitude":12.0,"place_type":"Country"},{"name":"Kisumu","latitude":-0.10221,"longitude":34.76171,"place_type":"City"},{"name":"Soviet Union","latitude":38.90344,"longitude":-77.03942,"place_type":"Pond"},{"name":"North Vietnam","latitude":35.99436,"longitude":-78.8987,"place_type":"Monument"}]}