{"people":["Mr Mohammed Hassan al-Amin","Hassan Turabi","Andrija Savic","Msimang","Mr Ghazi Suleiman","Binyavanga Wainaina"],"organizations":["Bandi Amir","Graduate Diploma In Project Planning and Management","Extra Mural Centres","State Security","United         Health Minister Manto Tshabalala","Board of Post Graduate   Studies","Khartoum","Sudan People's Liberation Army","Reuters","Congress Party","Graduate Diploma In Human Resource Management","Nations","National Congress","Graduate Diploma In Education","SPLA","The Associated Press","University of Nairobi","MOl"],"places":[{"name":"Serbia","latitude":44.81892,"longitude":20.45998,"place_type":"Country"},{"name":"P.O.","latitude":39.66472,"longitude":106.81222,"place_type":"City"},{"name":"Nakuru","latitude":-0.28333,"longitude":36.06667,"place_type":"City"},{"name":"NYERI","latitude":-0.42013,"longitude":36.94759,"place_type":"City"},{"name":"India","latitude":20.0,"longitude":77.0,"place_type":"Country"},{"name":"Bamiyan","latitude":34.75,"longitude":67.25,"place_type":"Adm"},{"name":"Kenya","latitude":1.0,"longitude":38.0,"place_type":"Country"},{"name":"UGANDA","latitude":2.0,"longitude":33.0,"place_type":"Country"},{"name":"NAIROBI","latitude":-1.28333,"longitude":36.81667,"place_type":"City"},{"name":"South Africa","latitude":-30.0,"longitude":26.0,"place_type":"Country"},{"name":"JOHANNESBURG","latitude":-26.20227,"longitude":28.04363,"place_type":"City"},{"name":"Nairobi","latitude":-1.28333,"longitude":36.81667,"place_type":"City"},{"name":"Kakamega","latitude":0.28422,"longitude":34.75228,"place_type":"City"},{"name":"Khartoum","latitude":15.55177,"longitude":32.53241,"place_type":"City"},{"name":"Uganda","latitude":2.0,"longitude":33.0,"place_type":"Country"},{"name":"Nyeri","latitude":-0.42013,"longitude":36.94759,"place_type":"City"},{"name":"Sudan","latitude":16.0,"longitude":30.0,"place_type":"Country"},{"name":"Mombasa","latitude":-4.05466,"longitude":39.66359,"place_type":"City"},{"name":"Ahmadabad","latitude":23.03333,"longitude":72.61667,"place_type":"City"},{"name":"Riyadh","latitude":23.33333,"longitude":45.33333,"place_type":"Adm"},{"name":"Africa","latitude":-30.0,"longitude":26.0,"place_type":"Country"},{"name":"Kisumu","latitude":-0.10221,"longitude":34.76171,"place_type":"City"},{"name":"Balkans","latitude":44.0,"longitude":23.0,"place_type":"GisFeature"}]}