{"people":["David","Mr Johnson","Brenda","Victoria Beckham","Japhet Koome","IAN JOHNSON                                                                                                                                                                                                                               M. Kalala","Louie T. Scales","Spears","Beckham","J. Kimani"],"organizations":["Britney Spears","World Bank","USA","Sustainable Development","Government","Rio de Janeiro","Socially Sustainable Development","Commission on Environment and Development","State","Central Division","Nile Basin Initiative","Media Services","United","Times Syndicate International","State House"],"places":[{"name":"United States","latitude":39.76,"longitude":-98.5,"place_type":"Country"},{"name":"Nairobi","latitude":-1.28333,"longitude":36.81667,"place_type":"City"},{"name":"Kenya","latitude":1.0,"longitude":38.0,"place_type":"Country"},{"name":"Hyattsville","latitude":38.95594,"longitude":-76.94553,"place_type":"City"},{"name":"Union","latitude":20.0,"longitude":77.0,"place_type":"Country"},{"name":"Africa","latitude":-30.0,"longitude":26.0,"place_type":"Country"},{"name":"Embu","latitude":-23.64664,"longitude":-46.85386,"place_type":"Adm"},{"name":"South Asia","latitude":-20.30367,"longitude":28.96435,"place_type":"Mine"},{"name":"Eastern Europe","latitude":51.72703,"longitude":28.38867,"place_type":"GisFeature"},{"name":"Middle East","latitude":41.06665,"longitude":-104.65996,"place_type":"GisFeature"},{"name":"China","latitude":35.0,"longitude":105.0,"place_type":"Country"},{"name":"Johannesburg","latitude":-26.20227,"longitude":28.04363,"place_type":"City"},{"name":"India","latitude":20.0,"longitude":77.0,"place_type":"Country"}]}