{"people":["Yoriko Kawaguchi","Museveni","Johan","Mr Prakash Shah","Yoweri Museveni","Mr Qadri","Jakob","Besigye","Salif Keita","Thabo Mbeki","Kizza Besigye","Desmond Lesajane","Mr Mohsin Qadri","Caleb Akandwanaho","David Tinyefunza","Kellenberger","Kony"],"organizations":["Colonel Noble","Bungoma High School Main Hall","Museveni","Military Intelligence","Reuters","Nairobi Liason Office","ICRC","Nasrec","Panapress","Red Cross","The University","LRA","Sustainable Development","Kisumu Kisumu Social Centre","Citizen Relief Serv","Kampala International University","Uganda House","Resistance Army","Earth    Summit","Police"],"places":[{"name":"United States","latitude":39.76,"longitude":-98.5,"place_type":"Country"},{"name":"Ghana","latitude":8.0,"longitude":-2.0,"place_type":"Country"},{"name":"Asmara","latitude":15.33333,"longitude":38.93333,"place_type":"City"},{"name":"Mali","latitude":17.0,"longitude":-4.0,"place_type":"Country"},{"name":"Johan","latitude":45.18333,"longitude":21.08333,"place_type":"City"},{"name":"Tokyo","latitude":35.6895,"longitude":139.69171,"place_type":"Adm"},{"name":"Uganda","latitude":2.0,"longitude":33.0,"place_type":"Country"},{"name":"Busia","latitude":0.45444,"longitude":34.07583,"place_type":"City"},{"name":"Johannesburg","latitude":-26.20227,"longitude":28.04363,"place_type":"City"},{"name":"India","latitude":20.0,"longitude":77.0,"place_type":"Country"},{"name":"NAIROBI","latitude":-1.28333,"longitude":36.81667,"place_type":"City"},{"name":"UGANDA","latitude":2.0,"longitude":33.0,"place_type":"Country"},{"name":"Ethiopia","latitude":8.0,"longitude":38.0,"place_type":"Country"},{"name":"Gujarat","latitude":23.0,"longitude":72.0,"place_type":"Adm"},{"name":"Tamale","latitude":9.40078,"longitude":-0.8393,"place_type":"City"},{"name":"Kansanga","latitude":-6.63442,"longitude":30.77062,"place_type":"City"},{"name":"Eritrea","latitude":15.0,"longitude":39.0,"place_type":"Country"},{"name":"South Africa","latitude":-30.0,"longitude":26.0,"place_type":"Country"},{"name":"Sandton","latitude":-26.05447,"longitude":28.05891,"place_type":"City"},{"name":"Ahmedabad","latitude":23.03333,"longitude":72.61667,"place_type":"City"},{"name":"JOHANNESBURG","latitude":-26.20227,"longitude":28.04363,"place_type":"City"}]}