{"people":["Bashir","Carol Atola","Atabani","Rasul Al Akram","Nyanyuki  Sumbeiywo","Salva Kiir","Winnie Walumbe","Suda","Mr Gerald Masila","Lt-Gen Lazarus","Kinjo","Jeff Wanyonyi","Evelye Walumbe"],"organizations":["Kipsigis Girls","Sudan                                                                                                                                                                                                           Tengecha    High","Magomano Secondary","Misikhu Girls","Egerton University","Khartoum Government","Meru","IGAD","Eastern Province","Daily Nation","Ngenia High","TIG","Installation                                                   ST. PATRICK","Sudanese                                                                                                                                                         Carmel Girls","Malava Girls","Western Province Nation","Machakos Girls","Naivasha    Girls","Mama Ngina Girls and   Machakos","St Cecilia Girls Misikhu","SPLM","Chemelil Academy","HNC","Inter-Governmentaf                                                                                                                                                        State House Girls","Chuka Boys"],"places":[{"name":"Nairobi","latitude":-1.28333,"longitude":36.81667,"place_type":"City"},{"name":"US","latitude":39.76,"longitude":-98.5,"place_type":"Country"},{"name":"Western Province","latitude":-34.0,"longitude":20.0,"place_type":"Adm"},{"name":"Mbaraki","latitude":-4.0733,"longitude":39.66198,"place_type":"WaterBody"},{"name":"Chania","latitude":35.51222,"longitude":24.01556,"place_type":"City"},{"name":"Uganda","latitude":2.0,"longitude":33.0,"place_type":"Country"},{"name":"Sudan","latitude":16.0,"longitude":30.0,"place_type":"Country"},{"name":"Italy","latitude":42.83333,"longitude":12.83333,"place_type":"Country"},{"name":"Western         Province","latitude":-34.0,"longitude":20.0,"place_type":"Adm"},{"name":"Kenya","latitude":1.0,"longitude":38.0,"place_type":"Country"},{"name":"Ethiopia","latitude":8.0,"longitude":38.0,"place_type":"Country"},{"name":"Eritrea","latitude":15.0,"longitude":39.0,"place_type":"Country"},{"name":"Embu","latitude":-23.64664,"longitude":-46.85386,"place_type":"Adm"},{"name":"Norway","latitude":62.0,"longitude":10.0,"place_type":"Country"},{"name":"Machakos","latitude":-1.51667,"longitude":37.26667,"place_type":"City"}]}