{"people":["Rajiv Gandhi","Mr Raila Odinga","Mr M'maitsi","Mr Khaniri","Yusuf M Rahemtulla","Musalia Mudavadi","Saitoti","Mr Kariuki","Mr Katana Ngala","Mr Kalonzo Musyoka","Kenneth Matiba","RONALD AROCHO","Ngenye Kariuki","Mr Joseph Kamotho","WRENCE MWANGI","Kanu","Kamotho"],"organizations":["General Elections","National Alliance Party of Kenya","Energy Minister Raila Odinga","Uhuru Kenyatta","Ngenye Kariuki","Parliament","Opposition","SYLVESTER OCHIENG","Uhuru","National Alliance                                                                                                                                                Uhuru","General Elec","General Election","Tysons","Opposi","Kenya Commercial Bank","Moi University"],"places":[{"name":"Nairobi","latitude":-1.28333,"longitude":36.81667,"place_type":"City"},{"name":"Parliament","latitude":53.06667,"longitude":-0.81667,"place_type":"City"},{"name":"Syria","latitude":35.0,"longitude":38.0,"place_type":"Country"},{"name":"Kalama","latitude":46.00845,"longitude":-122.84455,"place_type":"City"},{"name":"Iraq","latitude":33.0,"longitude":44.0,"place_type":"Country"},{"name":"Moldavia","latitude":47.0,"longitude":29.0,"place_type":"Country"},{"name":"Kenya","latitude":1.0,"longitude":38.0,"place_type":"Country"},{"name":"Central Province","latitude":-13.5,"longitude":34.0,"place_type":"Adm"},{"name":"Eldoret","latitude":0.52036,"longitude":35.26992,"place_type":"City"},{"name":"Kanu","latitude":19.93333,"longitude":95.46667,"place_type":"City"},{"name":"Africa","latitude":-30.0,"longitude":26.0,"place_type":"Country"},{"name":"Nyahururu","latitude":0.0421,"longitude":36.36734,"place_type":"City"},{"name":"The United States","latitude":19.42847,"longitude":-99.12766,"place_type":"City"}]}