{"people":["Joseph     Kabila","Mr Isaac Lugonzois","Paul Kllgame","Charles Njonjo","Paul Muite","J. D. OWITI","Kanu","Mr Bildad Kaggia","Hezekiah Ochuka","Kwame Nkrumah"],"organizations":["Trouble","Martha Wangechi","Wakulima Market","Kenya People's Union","Torit Mutiny","Bernard Shaw","Bori","Iraq","Kenya Air Force","Government","City Hall","The Government","Liberation Movement","Greenfields Estate","Jomo Kenyatta"],"places":[{"name":"Ghana","latitude":8.0,"longitude":-2.0,"place_type":"Country"},{"name":"Nairobi","latitude":-1.28333,"longitude":36.81667,"place_type":"City"},{"name":"Nairo","latitude":49.11667,"longitude":142.96667,"place_type":"City"},{"name":"Khartoum","latitude":15.55177,"longitude":32.53241,"place_type":"City"},{"name":"Sudan","latitude":16.0,"longitude":30.0,"place_type":"Country"},{"name":"Addis Ababa","latitude":9.02497,"longitude":38.74689,"place_type":"City"},{"name":"Iraq","latitude":33.0,"longitude":44.0,"place_type":"Country"},{"name":"Kenya","latitude":1.0,"longitude":38.0,"place_type":"Country"},{"name":"South B","latitude":-30.0,"longitude":26.0,"place_type":"Country"},{"name":"Kisii","latitude":-0.68174,"longitude":34.76666,"place_type":"City"},{"name":"East Timor","latitude":-8.83333,"longitude":125.75,"place_type":"Country"},{"name":"Kisumu","latitude":-0.10221,"longitude":34.76171,"place_type":"City"},{"name":"Eritrea","latitude":15.0,"longitude":39.0,"place_type":"Country"},{"name":"Congo","latitude":0.0,"longitude":25.0,"place_type":"Country"},{"name":"Kuwait","latitude":29.5,"longitude":47.75,"place_type":"Country"},{"name":"Kabete","latitude":-1.25,"longitude":36.73333,"place_type":"School"}]}