{"people":["Mr Odinga","Kiprono","Mr Gumo","ISABELLA KAMAU","Napoleon Bonaparte","Alexander Muge","Pieter W. Botha","Moyo","Kamukunji","Charles Njonjo","Mr Kamotho","Kanu","Masindd Muliro","E.N. MASINDE","Kamotho","Mujihur Rahman","Joseph Ngutu","Mugabe","Mr Moi","Mr Musalia Mudavadi","Kwamchetsi Makokha","Masinde Muliro","Mr                                                                                                                           SAMMY ADE","Mr Kenyatta","Gesiaga","Mr Joseph Kamotho","George Saitoti","Mr Lee Muthoga"],"organizations":["P. Wanyoike Gichiri & AP","Uhuru Project","Zimbabwean President Robert                                               Affairs Minister","National Party","Nyamira","Shauri","Nai","National","Commission","General","Government","West Virgi~ia University","The Government","National Resistance Army        Egypt","City Council","cYha                                       National Development Party","Development Party","Raila Odinga","Jomo Kenyatta International Airport","National Alliance","State House Comptroller Wilson","WERU","Nile                                                                                                                                              Odinga"],"places":[{"name":"Nairobi","latitude":-1.28333,"longitude":36.81667,"place_type":"City"},{"name":"Kasarani","latitude":-1.10972,"longitude":37.07692,"place_type":"CitySubdivision"},{"name":"Nakuru","latitude":-0.28333,"longitude":36.06667,"place_type":"City"},{"name":"Busia","latitude":0.45444,"longitude":34.07583,"place_type":"City"},{"name":"Kampala","latitude":0.31628,"longitude":32.58219,"place_type":"City"},{"name":"Kenyatta International Airport","latitude":-1.31924,"longitude":36.92778,"place_type":"Airport"},{"name":"Mombasa","latitude":-4.05466,"longitude":39.66359,"place_type":"City"},{"name":"Kenya","latitude":1.0,"longitude":38.0,"place_type":"Country"},{"name":"Eldoret","latitude":0.52036,"longitude":35.26992,"place_type":"City"},{"name":"Kisumu","latitude":-0.10221,"longitude":34.76171,"place_type":"City"},{"name":"South Africa","latitude":-30.0,"longitude":26.0,"place_type":"Country"},{"name":"Nyanza","latitude":-0.5,"longitude":34.5,"place_type":"Adm"}]}