{"people":["Mr Wamalwa","Mr Simeon              Moi","Ngilu","Kibaki","Musalia Mudavadi","Mr Wanguhu Nganga","Mr Kibaki","Bill","Mr Kenyatta","Shem Ochuodho","Mrs Ngilu","Mr Kijana","Kanu","Mr Gaitho","George Saitoti"],"organizations":["Nation     Cemre","National Party of Kenya","Uhuru Kenyatta","Moi","Ford","Control Bill 2002","Uhuru","NaDonMedia G","Rainbow Alli","Ford People","National","Project Uhuru","Nation     Media Group      Limilod","Coalition","Western Kenya","Ford Kenya","Nyachae","National Alliance","University of Nairobi","NAK","Raila Odinga and Kalonzo Musyoka","Party of Kenya"],"places":[{"name":"Nairobi","latitude":-1.28333,"longitude":36.81667,"place_type":"City"},{"name":"Kenya","latitude":1.0,"longitude":38.0,"place_type":"Country"},{"name":"Kibera","latitude":0.65,"longitude":28.76667,"place_type":"City"},{"name":"Anyang","latitude":36.09944,"longitude":114.32889,"place_type":"City"},{"name":"Kanu","latitude":19.93333,"longitude":95.46667,"place_type":"City"},{"name":"Mombasa    Road","latitude":-1.46667,"longitude":37.03333,"place_type":"Road"},{"name":"Bungoma","latitude":0.5635,"longitude":34.56055,"place_type":"City"}]}