{"people":["Jean-Pierre Garnier","Nairob","James Koskei","Mr Cliff Ombeta","Nakuru Kanu","Eric Morogo","Antoine Sendama","Kimani Ngunjiri","Mr Sendama","Andrew Hayanga","JOHN OYW A                                          Mr Sendama","PAUL REDFERN","Priscilla Jemutai Kolongei","Kanu","Sam Ongeri","Sendame","Ongeri"],"organizations":["The High Court","Malarone","Sho s & Wholesalers","Nation Centre","GlaxoSmithKline","Nile Basin Initiative","GSK","Nile Basin Initiative sec","Nile Basin Initiative                                                      Kenya","World Conservation Union","Kenya Airways","Jomo Kenyatta                                                    sub-Saharan Africa","World Health Organisation","River Nile","Nile","Environmental Journalist","Mike Mwaniki                                                                                                                                                                                             Court","Nation Media Croup Limited","NATION Correspondent"],"places":[{"name":"Mumbai","latitude":19.01441,"longitude":72.84794,"place_type":"City"},{"name":"International Airport","latitude":39.4988,"longitude":-119.76797,"place_type":"Airport"},{"name":"Tanzania","latitude":-6.0,"longitude":35.0,"place_type":"Country"},{"name":"Kasarani","latitude":-1.10972,"longitude":37.07692,"place_type":"CitySubdivision"},{"name":"Thailand","latitude":15.0,"longitude":100.0,"place_type":"Country"},{"name":"East","latitude":-5.0,"longitude":120.0,"place_type":"Country"},{"name":"Parliament","latitude":53.06667,"longitude":-0.81667,"place_type":"City"},{"name":"Mombasa Road","latitude":-1.46667,"longitude":37.03333,"place_type":"Road"},{"name":"London","latitude":51.50853,"longitude":-0.12574,"place_type":"City"},{"name":"India","latitude":20.0,"longitude":77.0,"place_type":"Country"},{"name":"Kenya","latitude":1.0,"longitude":38.0,"place_type":"Country"},{"name":"Ethiopia","latitude":8.0,"longitude":38.0,"place_type":"Country"},{"name":"Lake Victoria","latitude":-38.05,"longitude":147.5,"place_type":"Lake"},{"name":"Australia","latitude":-25.0,"longitude":135.0,"place_type":"Country"},{"name":"Eritrea","latitude":15.0,"longitude":39.0,"place_type":"Country"},{"name":"Nairobi","latitude":-1.28333,"longitude":36.81667,"place_type":"City"},{"name":"Belle","latitude":16.04322,"longitude":-61.56596,"place_type":"City"},{"name":"Pakistan","latitude":30.0,"longitude":70.0,"place_type":"Country"},{"name":"Burundi","latitude":-3.5,"longitude":30.0,"place_type":"Country"},{"name":"Central Africa","latitude":-2.02107,"longitude":24.69727,"place_type":"GisFeature"},{"name":"Uganda","latitude":2.0,"longitude":33.0,"place_type":"Country"},{"name":"Sudan","latitude":16.0,"longitude":30.0,"place_type":"Country"},{"name":"Rwanda","latitude":-2.0,"longitude":30.0,"place_type":"Country"},{"name":"Egypt","latitude":27.0,"longitude":30.0,"place_type":"Country"},{"name":"Africa","latitude":-30.0,"longitude":26.0,"place_type":"Country"},{"name":"Kisumu","latitude":-0.10221,"longitude":34.76171,"place_type":"City"}]}