{"people":["Dr. Shariff","Chris","Mutava Musyimi"],"organizations":["World Bank","Coast Province","NCCK","National Council of Churches of Kenya"],"places":[{"name":"Kakamega","latitude":0.28422,"longitude":34.75228,"place_type":"City"},{"name":"Kenya","latitude":1.0,"longitude":38.0,"place_type":"Country"},{"name":"Kilifi","latitude":-3.63045,"longitude":39.84992,"place_type":"City"},{"name":"Garissa","latitude":-0.45355,"longitude":39.64011,"place_type":"City"},{"name":"Nakuru","latitude":-0.28333,"longitude":36.06667,"place_type":"City"},{"name":"Embu","latitude":-23.64664,"longitude":-46.85386,"place_type":"Adm"},{"name":"Mombasa","latitude":-4.05466,"longitude":39.66359,"place_type":"City"}]}