{"people":["Oneko","Mathew","Dan Teng","Danie","Joseph","Koinange","Kungu Karumba","Daniel Toroitich","Bildad Kaggia","Philip                                                                         James Karanja","Paul Ngei","Fred Kubai","Josiah Njonjo","Dedan Kimathi","Achieng Oneko","Kanu","Kenyatta","Mathenge","Hinga"],"organizations":["Kenyatta as Prime Minister","Carter Land                                                                         President Mzee Jomo Kenyatta","NACC","Kenya African National Union","Commission","Council","Waruhiu Itote","Uhuru            Central Association","Legislative Council","Jomo Kenyatta","Armed                                    Association","Kenyatta"],"places":[{"name":"Britain","latitude":54.0,"longitude":-4.0,"place_type":"Country"},{"name":"Nairobi","latitude":-1.28333,"longitude":36.81667,"place_type":"City"},{"name":"KENYA","latitude":1.0,"longitude":38.0,"place_type":"Country"},{"name":"Kiambu","latitude":-1.16667,"longitude":36.83333,"place_type":"City"},{"name":"P.O.","latitude":39.66472,"longitude":106.81222,"place_type":"City"},{"name":"England","latitude":54.0,"longitude":-4.0,"place_type":"Country"},{"name":"Gatundu","latitude":-0.88333,"longitude":36.98333,"place_type":"School"},{"name":"Kenya","latitude":1.0,"longitude":38.0,"place_type":"Country"},{"name":"NAIROBI","latitude":-1.28333,"longitude":36.81667,"place_type":"City"},{"name":"Mount Kenya","latitude":-0.15,"longitude":37.3,"place_type":"Mountain"},{"name":"Kismayu","latitude":-0.35817,"longitude":42.54536,"place_type":"City"}]}