{"people":["Mr Ojodeh","Peter Mutulu","Mr Ngutu","Mr Tom Kisia","Knut Secretary-General       Francis","Mr Pasha","PAUL REDFERN","Knut","John Katumanga"],"organizations":["United Arab Emirates","Najat Marine Shipping","Tea Growers Association","NATION Team                     Education and Labour","Norfolk Hotel","Interpol","International  Transport","Serious Fraud Squad","Secondary Education","Interpol Investigations","Tony McGregor India","Baringo District    Education   Officer","Union of Teachers","UAE","Labour Minister Joseph","Najat","Central Organisation of Trade Unions","ITF","J.J.          Kenya Certificate of Primary Education","Nation","Kenya National                                                                                                                                                                                                                                                                                     Photo/Paul Waweru","Teachers Service Commission","London                           Labour"],"places":[{"name":"Nairobi","latitude":-1.28333,"longitude":36.81667,"place_type":"City"},{"name":"Tanzania","latitude":-6.0,"longitude":35.0,"place_type":"Country"},{"name":"Morocco","latitude":32.0,"longitude":-5.0,"place_type":"Country"},{"name":"Pakistan","latitude":30.0,"longitude":70.0,"place_type":"Country"},{"name":"Syria","latitude":35.0,"longitude":38.0,"place_type":"Country"},{"name":"Sharjah","latitude":25.0,"longitude":55.75,"place_type":"Adm"},{"name":"Fairplay","latitude":39.22471,"longitude":-106.00196,"place_type":"City"},{"name":"Kong","latitude":22.28552,"longitude":114.15769,"place_type":"City"},{"name":"London","latitude":51.50853,"longitude":-0.12574,"place_type":"City"},{"name":"India","latitude":20.0,"longitude":77.0,"place_type":"Country"},{"name":"Kenya","latitude":1.0,"longitude":38.0,"place_type":"Country"},{"name":"Ethiopia","latitude":8.0,"longitude":38.0,"place_type":"Country"},{"name":"Pasha","latitude":41.76667,"longitude":26.2,"place_type":"City"},{"name":"Romania","latitude":46.0,"longitude":25.0,"place_type":"Country"},{"name":"China","latitude":35.0,"longitude":105.0,"place_type":"Country"}]}