{"people":["Mr Dinh Maalim Stampboul","Adolf Hilter","Leakey","JOHN ROKTOK","George Abungu","Kanu","Geoffrey Muathe","Dr. J. K. A. MISOI","Mr Simeon Choge"],"organizations":["Our Parliament","General Elections      Legislators","Embassy","The Kenya Mines Department","Wanyoike Gicbiri & AP","Opposition","Parliament","Nairobi Police Chief  nist Party","august House","Communist Party","Iraq","League of Nations","Commission","Government","ifI","Constitution of Kenya Review Commis","US President Bill Clinton","House","United Nations","National Rainbow Coalition"],"places":[{"name":"Migori","latitude":-1.06344,"longitude":34.47313,"place_type":"City"},{"name":"Britain","latitude":54.0,"longitude":-4.0,"place_type":"Country"},{"name":"Kajiado District","latitude":-2.0,"longitude":36.75,"place_type":"GisFeature"},{"name":"Nairobi","latitude":-1.28333,"longitude":36.81667,"place_type":"City"},{"name":"US","latitude":39.76,"longitude":-98.5,"place_type":"Country"},{"name":"Berlin","latitude":52.5233,"longitude":13.41377,"place_type":"Adm"},{"name":"Parliament","latitude":53.06667,"longitude":-0.81667,"place_type":"City"},{"name":"Burundi","latitude":-3.5,"longitude":30.0,"place_type":"Country"},{"name":"Nyeri","latitude":-0.42013,"longitude":36.94759,"place_type":"City"},{"name":"Mombasa","latitude":-4.05466,"longitude":39.66359,"place_type":"City"},{"name":"Italy","latitude":42.83333,"longitude":12.83333,"place_type":"Country"},{"name":"New York","latitude":43.00035,"longitude":-75.4999,"place_type":"Adm"},{"name":"Naples","latitude":40.88333,"longitude":14.41667,"place_type":"Adm"},{"name":"Eldoret","latitude":0.52036,"longitude":35.26992,"place_type":"City"},{"name":"Marshall Islands","latitude":7.113,"longitude":171.236,"place_type":"Country"},{"name":"Soviet Union","latitude":38.90344,"longitude":-77.03942,"place_type":"Pond"},{"name":"Prague","latitude":50.08333,"longitude":14.46667,"place_type":"Adm"},{"name":"The United States","latitude":19.42847,"longitude":-99.12766,"place_type":"City"},{"name":"South Nyanza Province","latitude":-0.75,"longitude":34.41667,"place_type":"GisFeature"},{"name":"China","latitude":35.0,"longitude":105.0,"place_type":"Country"}]}