{"people":["Ngilu","John Mutongah","Bush","Muammar Gaddafi","Al Arabiya","Mr Ndirangu","GEORGE W. BUSH","Obama","Brown","Jackson","Hillary Clinton","Yoweri Musev","BARACK                  Robert Gates","JOSEPH S. NYE","Lawrence Taylor","Shawn Johnson","Gaddaﬁ","J.N. Munene","Philip","Mark Pius Oburu","Chris Brown","Kalume"],"organizations":["United States of Africa","Wrigley","Defence","European Union on             Importantly","Lower Kabete Union Government","New York Giants","Nelson Mandela","NDIRANGU                                                                                                                                                          Edge             United States of Africa","African Union            ‘Kenya","African Union","Rihanna"],"places":[{"name":"Nairobi","latitude":-1.28333,"longitude":36.81667,"place_type":"City"},{"name":"Ngara","latitude":-7.68386,"longitude":112.25804,"place_type":"City"},{"name":"Lutta","latitude":61.16667,"longitude":21.75,"place_type":"City"},{"name":"Uganda","latitude":2.0,"longitude":33.0,"place_type":"Country"},{"name":"Libya","latitude":25.0,"longitude":17.0,"place_type":"Country"},{"name":"African Union","latitude":-26.5,"longitude":26.0,"place_type":"Adm"},{"name":"Mzima Springs","latitude":-2.98813,"longitude":38.02393,"place_type":"Spring"},{"name":"Mombasa","latitude":-4.05466,"longitude":39.66359,"place_type":"City"},{"name":"America","latitude":39.76,"longitude":-98.5,"place_type":"Country"},{"name":"Kenya","latitude":1.0,"longitude":38.0,"place_type":"Country"},{"name":"Harvard","latitude":42.42224,"longitude":-88.61371,"place_type":"City"},{"name":"Africa","latitude":-30.0,"longitude":26.0,"place_type":"Country"},{"name":"Gaddaﬁ","latitude":32.13309,"longitude":70.66569,"place_type":"City"},{"name":"Middle East","latitude":41.06665,"longitude":-104.65996,"place_type":"GisFeature"}]}