{"people":["Blair","Jackie Schoeman","Bush","George W.","Rashidiya","Hussein"],"organizations":["US Central Command","Sunday            Southern Oil Company","UNAids","Eastern","Agriculture Ministry","Reuters","Ministry of Defence","Lieutenant Colonel Martin Compton                                                                     Bani Saad","United Nations","Military Industrialisation Commission","Iraq"],"places":[{"name":"United States","latitude":39.76,"longitude":-98.5,"place_type":"Country"},{"name":"KENYA","latitude":1.0,"longitude":38.0,"place_type":"Country"},{"name":"Bhopal","latitude":23.26667,"longitude":77.4,"place_type":"City"},{"name":"Tampa","latitude":27.87307,"longitude":-82.51007,"place_type":"GisFeature"},{"name":"Europe","latitude":43.5333,"longitude":3.9833,"place_type":"Hotel"},{"name":"Baghdad","latitude":33.34058,"longitude":44.40088,"place_type":"City"},{"name":"Basra","latitude":30.53488,"longitude":47.78885,"place_type":"City"},{"name":"Florida","latitude":28.75054,"longitude":-82.5001,"place_type":"Adm"},{"name":"Sichuan","latitude":30.5,"longitude":102.5,"place_type":"Adm"},{"name":"NAKURU","latitude":-0.28333,"longitude":36.06667,"place_type":"City"},{"name":"Iraq","latitude":33.0,"longitude":44.0,"place_type":"Country"},{"name":"London","latitude":51.50853,"longitude":-0.12574,"place_type":"City"},{"name":"Central Asia","latitude":43.00465,"longitude":71.71875,"place_type":"GisFeature"},{"name":"India","latitude":20.0,"longitude":77.0,"place_type":"Country"},{"name":"NAIROBI","latitude":-1.28333,"longitude":36.81667,"place_type":"City"},{"name":"BAGHDAD","latitude":33.34058,"longitude":44.40088,"place_type":"City"},{"name":"South Africa","latitude":-30.0,"longitude":26.0,"place_type":"Country"},{"name":"China","latitude":35.0,"longitude":105.0,"place_type":"Country"},{"name":"JOHANNESBURG","latitude":-26.20227,"longitude":28.04363,"place_type":"City"},{"name":"Britain","latitude":54.0,"longitude":-4.0,"place_type":"Country"},{"name":"US","latitude":39.76,"longitude":-98.5,"place_type":"Country"},{"name":"Washington","latitude":47.50012,"longitude":-120.50147,"place_type":"Adm"},{"name":"Johannesburg","latitude":-26.20227,"longitude":28.04363,"place_type":"City"},{"name":"northern Iraq","latitude":32.68333,"longitude":36.63333,"place_type":"GisFeature"},{"name":"Belgium","latitude":50.83333,"longitude":4.0,"place_type":"Country"}]}