{"people":["Kwadi","Dr Iba","BUNMI MAKINWA","Friel","Dr Friel","Samuei Okware","Patrick Friel","Diop","Mr Gottlieb Monekosso"],"organizations":["Aida","World Health Organisation","Afn","Kinsha&s","Internationai Devel","Cheikh Anta Diop University"],"places":[{"name":"United States","latitude":39.76,"longitude":-98.5,"place_type":"Country"},{"name":"Nairobi","latitude":-1.28333,"longitude":36.81667,"place_type":"City"},{"name":"Dakar","latitude":14.6937,"longitude":-17.44406,"place_type":"City"},{"name":"North Amer","latitude":51.72157,"longitude":4.69487,"place_type":"Stream"},{"name":"Harare","latitude":-17.82935,"longitude":31.05389,"place_type":"City"},{"name":"Europe","latitude":43.5333,"longitude":3.9833,"place_type":"Hotel"},{"name":"Uganda","latitude":2.0,"longitude":33.0,"place_type":"Country"},{"name":"Niamey","latitude":14.5,"longitude":1.33333,"place_type":"Adm"},{"name":"Niger","latitude":16.0,"longitude":8.0,"place_type":"Country"},{"name":"DAKAR","latitude":14.6937,"longitude":-17.44406,"place_type":"City"},{"name":"Cairo","latitude":30.06263,"longitude":31.24967,"place_type":"City"},{"name":"Montreal","latitude":45.50884,"longitude":-73.58781,"place_type":"City"},{"name":"Canada","latitude":60.0,"longitude":-96.0,"place_type":"Country"},{"name":"Senegal","latitude":14.0,"longitude":-14.0,"place_type":"Country"},{"name":"Africa","latitude":-30.0,"longitude":26.0,"place_type":"Country"}]}