{"people":["Bashir","Mr Mustafa Osman Ismail","Mr Pas","Callixte Rucamihigo","Turabi","Mr Turabi","Mr Mungomo","Mr Amin Hassan Omar","Kasonga","Zimba","Mr Omar","Chantal Kabagabo","Faql Ali Mohammed","BrIan Mungomo","Laurent Kabila"],"organizations":["National Aids Control","Monday                                                                                                                                                                                                                                                     Troops","LTo","FDA of America","Rwanda                                                                                                                                                                                                    Police","Programme","Malawi Congress","Information Ministry","Congo","Rota PlasticWater Tanks"],"places":[{"name":"Angola","latitude":-12.5,"longitude":18.5,"place_type":"Country"},{"name":"Asmara","latitude":15.33333,"longitude":38.93333,"place_type":"City"},{"name":"Kinshasa","latitude":0.0,"longitude":25.0,"place_type":"Country"},{"name":"Kigali","latitude":-1.94995,"longitude":30.05885,"place_type":"City"},{"name":"KINSHASA","latitude":0.0,"longitude":25.0,"place_type":"Country"},{"name":"NAIROBI","latitude":-1.28333,"longitude":36.81667,"place_type":"City"},{"name":"Kenya","latitude":1.0,"longitude":38.0,"place_type":"Country"},{"name":"Bahrain","latitude":26.0,"longitude":50.5,"place_type":"Country"},{"name":"V.D.","latitude":50.2265,"longitude":8.61197,"place_type":"Adm"},{"name":"Yemen","latitude":15.5,"longitude":47.5,"place_type":"Country"},{"name":"Eritrea","latitude":15.0,"longitude":39.0,"place_type":"Country"},{"name":"Namibia","latitude":-22.0,"longitude":17.0,"place_type":"Country"},{"name":"Nairobi","latitude":-1.28333,"longitude":36.81667,"place_type":"City"},{"name":"US","latitude":39.76,"longitude":-98.5,"place_type":"Country"},{"name":"Khartoum","latitude":15.55177,"longitude":32.53241,"place_type":"City"},{"name":"Ntcheu","latitude":-14.75,"longitude":34.75,"place_type":"Adm"},{"name":"Uganda","latitude":2.0,"longitude":33.0,"place_type":"Country"},{"name":"KHARTOUM","latitude":15.55177,"longitude":32.53241,"place_type":"City"},{"name":"Sudan","latitude":16.0,"longitude":30.0,"place_type":"Country"},{"name":"Kasonga","latitude":-5.46667,"longitude":21.18333,"place_type":"City"},{"name":"Rwanda","latitude":-2.0,"longitude":30.0,"place_type":"Country"},{"name":"KIGALI","latitude":-1.94995,"longitude":30.05885,"place_type":"City"},{"name":"Taipei","latitude":25.04776,"longitude":121.53185,"place_type":"City"},{"name":"Canada","latitude":60.0,"longitude":-96.0,"place_type":"Country"},{"name":"AFRICA  Sudan","latitude":-27.93144,"longitude":27.78394,"place_type":"Farm"},{"name":"Africa","latitude":-30.0,"longitude":26.0,"place_type":"Country"},{"name":"Congo","latitude":0.0,"longitude":25.0,"place_type":"Country"}]}