{"people":["Shaaban Mchenga"],"organizations":["Karuna Close Westlands","Kakamega Hospital","Westlands","District Hospital","Busia District     Domestic","Shopping Centre","James Medical Centre","Hen District          Intra Africa Inbound-Northern","Hurlingham       Hospital","House","Garden Children","Kenyatta NatIOnal HospItal","Rainbow","Nairobi West Group","R.S. Ambulance","Nairo","Red Cross Society","Nursing    Home Tel.","Elgon Hospital","AAR Health Services","Bungoma Nursing Home","District     Hospital","Kitale Distri","Unga","Nbo","Ngong Road","SaYYlda FatIma HospItal            Hospital"],"places":[{"name":"Kakamega","latitude":0.28422,"longitude":34.75228,"place_type":"City"},{"name":"Nairobi","latitude":-1.28333,"longitude":36.81667,"place_type":"City"},{"name":"Nairobi   West","latitude":-1.3,"longitude":36.81667,"place_type":"CitySubdivision"},{"name":"Nzoia","latitude":0.45337,"longitude":34.61038,"place_type":"GisFeature"},{"name":"Seychelles","latitude":-4.58333,"longitude":55.66667,"place_type":"Country"},{"name":"Busia","latitude":0.45444,"longitude":34.07583,"place_type":"City"},{"name":"Mombasa","latitude":-4.05466,"longitude":39.66359,"place_type":"City"},{"name":"Kapsabet","latitude":0.20387,"longitude":35.105,"place_type":"City"}]}