{"people":["Kaunda","Lokicho"],"organizations":["Nyanza Provincial Gen","Nairobi Baptist Church Annexe","BA Pandya Memorial     Hospital","Dar 1615 aIT Nbo","Group","Cathedral","Joseph's Mission Hospital","Hre","AAR     Health   Services","Police Ambulance Tel 999","Flying Doctors Service","Catholic Church","Hre 1100                                         Memorial     Hospital","Eldoret Hospital","Dep Nbo","Nbo             dep Nbo","Garden Children's       Hospital","dep Based Health Care Services Tel          St Elizabeth Hospital Mukumu","Hospital","Nbo Bookshop","Siloam Hospital","AIT                                         Hospital","Catholic    Services","Fatima Hospital","Chiromo Medica","Nbo          Nbo","Jericho Group","Kapsabet    District Hospital","Ngong Road","Douala Amref","AIC","Bakarani Hospital","James       Hospital","John's Ambulance","Kisauni      District Hospital","Kakamega       Hospital","County Lane off           Hospital","Seren","Msa","Kakamega Highway Nursing              Nbo","Nbi Service","Unga House","Uasin Gishu Memorial Hospi","Nbo         Nbo","Nbi","Kitale District Hospital","Uasin Gishu Memorial hospital Tel","dep Cross Society","Comprehensive Medica","Nbo","Muthithi    AIRLINES                                Malindi","Harbour House","Kiswahili"],"places":[{"name":"Mumbai","latitude":19.01441,"longitude":72.84794,"place_type":"City"},{"name":"Tanzania","latitude":-6.0,"longitude":35.0,"place_type":"Country"},{"name":"East","latitude":-5.0,"longitude":120.0,"place_type":"Country"},{"name":"Ksm","latitude":2.9478,"longitude":102.0728,"place_type":"City"},{"name":"Dubai","latitude":25.0,"longitude":55.33333,"place_type":"Adm"},{"name":"Saudia","latitude":25.0,"longitude":45.0,"place_type":"Country"},{"name":"Lamu","latitude":-2.27169,"longitude":40.90201,"place_type":"City"},{"name":"Kinshasa","latitude":0.0,"longitude":25.0,"place_type":"Country"},{"name":"Addis Ababa","latitude":9.02497,"longitude":38.74689,"place_type":"City"},{"name":"Kigali","latitude":-1.94995,"longitude":30.05885,"place_type":"City"},{"name":"Bungoma","latitude":0.5635,"longitude":34.56055,"place_type":"City"},{"name":"India","latitude":20.0,"longitude":77.0,"place_type":"Country"},{"name":"France","latitude":46.0,"longitude":2.0,"place_type":"Country"},{"name":"Zanzibar","latitude":-6.0,"longitude":35.0,"place_type":"Country"},{"name":"Jeri","latitude":57.87936,"longitude":25.36022,"place_type":"City"},{"name":"Kenya","latitude":1.0,"longitude":38.0,"place_type":"Country"},{"name":"KERICHO","latitude":-0.36774,"longitude":35.28314,"place_type":"City"},{"name":"Karachi","latitude":24.9056,"longitude":67.0822,"place_type":"City"},{"name":"Entebbe","latitude":0.06444,"longitude":32.44694,"place_type":"City"},{"name":"Nairobi","latitude":-1.28333,"longitude":36.81667,"place_type":"City"},{"name":"Lake Home","latitude":-77.55,"longitude":166.11667,"place_type":"Lake"},{"name":"Douala","latitude":4.04827,"longitude":9.70428,"place_type":"City"},{"name":"Busia","latitude":0.45444,"longitude":34.07583,"place_type":"City"},{"name":"Mombasa","latitude":-4.05466,"longitude":39.66359,"place_type":"City"},{"name":"Mauritius","latitude":-20.3,"longitude":57.58333,"place_type":"Country"},{"name":"Pacifica","latitude":37.61383,"longitude":-122.48692,"place_type":"City"},{"name":"Kisii","latitude":-0.68174,"longitude":34.76666,"place_type":"City"},{"name":"Paris","latitude":48.85339,"longitude":2.34864,"place_type":"Adm"},{"name":"Eldoret","latitude":0.52036,"longitude":35.26992,"place_type":"City"},{"name":"Kisumu","latitude":-0.10221,"longitude":34.76171,"place_type":"City"},{"name":"Malindi","latitude":-3.21748,"longitude":40.1191,"place_type":"City"},{"name":"Zimbabwe","latitude":-19.0,"longitude":29.0,"place_type":"Country"}]}