{"people":["William","Saxena","Michael O. K'owuor","Opango","M. Ngouabi","Mr Owandati","Byrum Makokha","Mary Waweru","Delamere","Julius Sunkuli","Kanu","Kamotho","Jeff Kens","Ramesh Saxena","Ngilu","Ben Ashihundu","Joachim","Makarios","Massimo","Fred Gumo","Kawang","Nyachae","Simeon Nyachae","Waldheim","Devchand Mokar Shah","Nyokabi Kamau"],"organizations":["Ivory Coast","Nyachae    Africa","Oxford","Parliament","Church of God","National Social Secu","The Daily Nation","SDP","Sahel-Benin Union","Buru Buru Church","NGOs","Organi","City Council","Mariakani Christian Centre","Cyprus","House","United Nations","Global Strate","Mahatma Gandhi","Makokha","Jehovah","Lieutenant-General             Lancia Delta Integrate","Moi Girls Eldoret         Church of God","Heart to Heart Foundation","Kenya Aids                                       Mombasa","General Assembly","Rift Valley","Kanu headquarters   Audit Heart","Mwihila Hospital","UNEP","Sikhs    Treaty","Concisc Dictionary","NGOs Consortium","Development Service","Safari Rally","NGOS","Mwihila Press","Conservation Group","Ministers Joseph","KMA"],"places":[{"name":"Cuba","latitude":22.0,"longitude":-79.5,"place_type":"Country"},{"name":"Tanzania","latitude":-6.0,"longitude":35.0,"place_type":"Country"},{"name":"Greece","latitude":39.0,"longitude":22.0,"place_type":"Country"},{"name":"East Africa","latitude":-18.25,"longitude":35.0,"place_type":"Country"},{"name":"Italy","latitude":42.83333,"longitude":12.83333,"place_type":"Country"},{"name":"Thika","latitude":-1.03326,"longitude":37.06933,"place_type":"City"},{"name":"India","latitude":20.0,"longitude":77.0,"place_type":"Country"},{"name":"France","latitude":46.0,"longitude":2.0,"place_type":"Country"},{"name":"Mogadishu","latitude":2.03711,"longitude":45.34375,"place_type":"City"},{"name":"Dahomey","latitude":9.5,"longitude":2.25,"place_type":"Country"},{"name":"Denmark","latitude":56.0,"longitude":10.0,"place_type":"Country"},{"name":"Asia","latitude":9.56667,"longitude":122.6,"place_type":"Adm"},{"name":"North","latitude":40.0,"longitude":127.0,"place_type":"Country"},{"name":"Nairobi","latitude":-1.28333,"longitude":36.81667,"place_type":"City"},{"name":"Zaire","latitude":0.0,"longitude":25.0,"place_type":"Country"},{"name":"West Cyprus","latitude":34.925,"longitude":32.84167,"place_type":"Mountain"},{"name":"Turkey","latitude":39.05901,"longitude":34.91155,"place_type":"Country"},{"name":"Jammu","latitude":33.0,"longitude":77.0,"place_type":"Adm"},{"name":"Havana","latitude":23.13302,"longitude":-82.38304,"place_type":"City"},{"name":"Niger","latitude":16.0,"longitude":8.0,"place_type":"Country"},{"name":"Canada","latitude":60.0,"longitude":-96.0,"place_type":"Country"},{"name":"Brazil","latitude":-10.0,"longitude":-55.0,"place_type":"Country"},{"name":"Eldoret","latitude":0.52036,"longitude":35.26992,"place_type":"City"},{"name":"Africa","latitude":-30.0,"longitude":26.0,"place_type":"Country"},{"name":"Iceland","latitude":65.0,"longitude":-18.0,"place_type":"Country"},{"name":"United States","latitude":39.76,"longitude":-98.5,"place_type":"Country"},{"name":"Mukuria","latitude":25.61667,"longitude":87.88333,"place_type":"City"},{"name":"City Stadium","latitude":44.50778,"longitude":-87.99306,"place_type":"Park"},{"name":"Parliament","latitude":53.06667,"longitude":-0.81667,"place_type":"City"},{"name":"Anony","latitude":-17.41667,"longitude":48.53333,"place_type":"Stream"},{"name":"England","latitude":54.0,"longitude":-4.0,"place_type":"Country"},{"name":"Israel","latitude":31.5,"longitude":34.75,"place_type":"Country"},{"name":"Kenya","latitude":1.0,"longitude":38.0,"place_type":"Country"},{"name":"Dagoretti","latitude":-1.28333,"longitude":36.68333,"place_type":"GisFeature"},{"name":"Kericho","latitude":-0.36774,"longitude":35.28314,"place_type":"City"},{"name":"South Africa","latitude":-30.0,"longitude":26.0,"place_type":"Country"},{"name":"Netherlands","latitude":-5.0,"longitude":120.0,"place_type":"Country"},{"name":"China","latitude":35.0,"longitude":105.0,"place_type":"Country"},{"name":"Britain","latitude":54.0,"longitude":-4.0,"place_type":"Country"},{"name":"Washington","latitude":47.50012,"longitude":-120.50147,"place_type":"Adm"},{"name":"Finland","latitude":64.0,"longitude":26.0,"place_type":"Country"},{"name":"Latin America","latitude":41.94142,"longitude":-87.65339,"place_type":"Religious"},{"name":"Uganda","latitude":2.0,"longitude":33.0,"place_type":"Country"},{"name":"America","latitude":39.76,"longitude":-98.5,"place_type":"Country"},{"name":"Belgium","latitude":50.83333,"longitude":4.0,"place_type":"Country"},{"name":"Soviet Union","latitude":38.90344,"longitude":-77.03942,"place_type":"Pond"},{"name":"Russia","latitude":60.0,"longitude":100.0,"place_type":"Country"},{"name":"Japan","latitude":35.68536,"longitude":139.7531,"place_type":"Country"}]}