{"people":["Seif Mohamed Seif","Adam Smith","Mr Opala","Ken","Nehemiah              Kenyans","Goldenberg","Lotodo","Mr Rotich","Nixon Sifuna","Njuguna","Mengele","Rotich","Mr Tom Mboya","N. Karanja","W. Gakuru","Muhindi","Kanu","Oscar Kibet","Ken Opal","Thomas Sewerei","Tom Mboya","E.H. Likalama","Mr Ranley Thaker","Mr E.","Seth Ngunga","Kizito B. Lawrence","Vern","Mr Mbiyu Koinange","Khamis","D.W. Craw","Khamis Kombo"],"organizations":["SASAKAH & AP","Daily Nation","Finance","Josef                                                                                                                   Lighting      Company","Jomo","KWS                    Kenya","Kenya African National Union","World Bank","Kenya Wildlife Service","Ongata Rongai","Nation","KWS","The State Depart","Democratic Union","National Union of Teachers","Minister for Labour","IMF"],"places":[{"name":"United States","latitude":39.76,"longitude":-98.5,"place_type":"Country"},{"name":"London","latitude":51.50853,"longitude":-0.12574,"place_type":"City"},{"name":"Thika","latitude":-1.03326,"longitude":37.06933,"place_type":"City"},{"name":"Makongeni","latitude":-3.1,"longitude":39.61667,"place_type":"GisFeature"},{"name":"Kenya","latitude":1.0,"longitude":38.0,"place_type":"Country"},{"name":"Tibet","latitude":32.0,"longitude":90.0,"place_type":"Adm"},{"name":"South Africa","latitude":-30.0,"longitude":26.0,"place_type":"Country"},{"name":"Kenyatta","latitude":-1.1,"longitude":36.98333,"place_type":"Road"},{"name":"Kericho","latitude":-0.36774,"longitude":35.28314,"place_type":"City"},{"name":"Kuwait","latitude":29.5,"longitude":47.75,"place_type":"Country"},{"name":"China","latitude":35.0,"longitude":105.0,"place_type":"Country"},{"name":"Nairobi","latitude":-1.28333,"longitude":36.81667,"place_type":"City"},{"name":"North America","latitude":35.50069,"longitude":-80.00032,"place_type":"Adm"},{"name":"Mwimuto","latitude":-0.93333,"longitude":36.86667,"place_type":"City"},{"name":"Kiambu","latitude":-1.16667,"longitude":36.83333,"place_type":"City"},{"name":"Western Europe","latitude":48.57479,"longitude":8.9209,"place_type":"GisFeature"},{"name":"Turkey","latitude":39.05901,"longitude":34.91155,"place_type":"Country"},{"name":"Mombasa","latitude":-4.05466,"longitude":39.66359,"place_type":"City"},{"name":"Rhodesia","latitude":-15.0,"longitude":30.0,"place_type":"Country"},{"name":"Swaziland","latitude":-26.5,"longitude":31.5,"place_type":"Country"},{"name":"Brazil","latitude":-10.0,"longitude":-55.0,"place_type":"Country"},{"name":"Eldoret","latitude":0.52036,"longitude":35.26992,"place_type":"City"},{"name":"Eldoret      Kenya","latitude":0.52036,"longitude":35.26992,"place_type":"City"},{"name":"Africa","latitude":-30.0,"longitude":26.0,"place_type":"Country"},{"name":"Japan","latitude":35.68536,"longitude":139.7531,"place_type":"Country"}]}