{"people":["Zacharia Cheruiyot","Geoffery","Kalen","Sheldon Muchilwa","Abdi Affey          South","Saitoti","Mr Chris Lomada","Madoka","Ekwe Ethuro","Kaparo","Mutua Katuku","Mr Muchilwa","John Marimoi","Chris Okemo","Affey","Parpai","Ngutu","Wamae","Marsden       Madoka","Matu Wamae","Mr Lomada","Mr Abner Moywaywa","Mr Madoka","Mr Mohammed","Owino Acholla","George Saitoti"],"organizations":["Nairobi National","Defence","Embassy","Klanda School","Nairobi National Park","Green Card","Treasury","1i42&82/3 NAIROBI                                                                                                   KENYA WILDLIFE","Ford-K","PAG","Kianda School","Labour Minister Joseph Ngutu                                                                                                   House     Speaker      Francis Aids","Securicor","Corporate Training","United States Embassy","Strathmore College","Nation","KWS","US Embassy","House","US                    Grace Mwewa","Mr     District Hospital","Nation          Newspapers","Wajir        Minister for Foreign Affairs"],"places":[{"name":"Wajir","latitude":1.7471,"longitude":40.05732,"place_type":"City"},{"name":"Migori","latitude":-1.06344,"longitude":34.47313,"place_type":"City"},{"name":"Mwala","latitude":-7.81667,"longitude":28.33333,"place_type":"Stream"},{"name":"KENYA","latitude":1.0,"longitude":38.0,"place_type":"Country"},{"name":"Nairobi","latitude":-1.28333,"longitude":36.81667,"place_type":"City"},{"name":"Kajiado District","latitude":-2.0,"longitude":36.75,"place_type":"GisFeature"},{"name":"US","latitude":39.76,"longitude":-98.5,"place_type":"Country"},{"name":"North Eastern Kenya","latitude":1.0,"longitude":40.25,"place_type":"Adm"},{"name":"Washington","latitude":47.50012,"longitude":-120.50147,"place_type":"Adm"},{"name":"North East","latitude":2.0,"longitude":99.0,"place_type":"Adm"},{"name":"Kajiado","latitude":-1.85238,"longitude":36.77683,"place_type":"City"},{"name":"Wajir District","latitude":1.75,"longitude":40.25,"place_type":"GisFeature"},{"name":"Nairobi Park","latitude":39.76639,"longitude":-104.94694,"place_type":"Park"},{"name":"Johannesburg","latitude":-26.20227,"longitude":28.04363,"place_type":"City"}]}