{"people":["Madjo","Bibiley Kabakaba","Artnet         Oluoch Madiang","Viva Makale","Pepe Kalle","Kip","Kiwakana Kiala","Yalibi Emmanuel","Gatei Munika","Madjo Maduley","ANTHONY           NJAGI","Kofi Olomide","Edno Fral","Abangisaka Kagame","John McWilliam","Dialun","Botango Bodjii","Makoso Kindundi","Lutumba Simaro","George Orido","Peter    Khayadi","George","Francis and Kabasselle","Wilson","Soki Gianzeza","Bibiley","Orch Bana","Josky Kiambakuta","Joniko Walengo","JOHN ASHIHUNDU","Baluzo Loko","Zuzuki Luzubu","Soki Vangu","Gathecha Kamau","Luambo Makiadi","Kiswahili       Madimu","Kasia","Mwandido","Peter Kinyonga","Sam Madoka","Betu Bijoi","Orch  Bela  Bela","DQn Bosco","Gathecha","Kipketer","Ndombe Opetum","Gerry Aurah"],"organizations":["Central","Sunday Nation","Kaptembwa Chiefs Camp","Les Kinois","Solei I D'Afrique","Malembe Stars","Orchestra Virunga","Bikassy","Teachers Choir","Mpudi Decca","Joroge Benson","Nakuru             Speaking","Quartier Latin                                                                                                                    Academia","Egerton University","Samba","Health International","National Artnet Aids Youth","Coast","Mia Chake","Vundumuna","Artnet"],"places":[{"name":"United States","latitude":39.76,"longitude":-98.5,"place_type":"Country"},{"name":"Nairobi","latitude":-1.28333,"longitude":36.81667,"place_type":"City"},{"name":"Park","latitude":14.63333,"longitude":99.1,"place_type":"Adm"},{"name":"Nakuru","latitude":-0.28333,"longitude":36.06667,"place_type":"City"},{"name":"Uganda","latitude":2.0,"longitude":33.0,"place_type":"Country"},{"name":"Kampala","latitude":0.31628,"longitude":32.58219,"place_type":"City"},{"name":"Kisangani","latitude":0.51667,"longitude":25.2,"place_type":"City"},{"name":"Kenya","latitude":1.0,"longitude":38.0,"place_type":"Country"},{"name":"Mbandaka","latitude":0.06667,"longitude":18.26667,"place_type":"City"},{"name":"Mwanza","latitude":-2.51667,"longitude":32.9,"place_type":"City"},{"name":"Congo","latitude":0.0,"longitude":25.0,"place_type":"Country"},{"name":"Japan","latitude":35.68536,"longitude":139.7531,"place_type":"Country"}]}