{"people":["Donald Flay"],"organizations":["Nairobi                                               ern Ireland","Peter & Wendy","IBM","Compaq","Pelican","Ferrous Fumerate","Nelleon Place","HEADOFFICE   Nation Centre","COMPAQ","Joy Bathrooms Ltd","SECURICOR","Niki & John of                                               Bristol"],"places":[{"name":"Nairobi","latitude":-1.28333,"longitude":36.81667,"place_type":"City"},{"name":"P.O.","latitude":39.66472,"longitude":106.81222,"place_type":"City"},{"name":"Nakuru","latitude":-0.28333,"longitude":36.06667,"place_type":"City"},{"name":"PENROSE","latitude":38.425,"longitude":-105.02276,"place_type":"City"},{"name":"Cal","latitude":17.03083,"longitude":-96.6975,"place_type":"City"},{"name":"Mombasa","latitude":-4.05466,"longitude":39.66359,"place_type":"City"},{"name":"Kenya","latitude":1.0,"longitude":38.0,"place_type":"Country"},{"name":"KERICHO","latitude":-0.36774,"longitude":35.28314,"place_type":"City"},{"name":"Aluminium","latitude":51.45788,"longitude":3.70252,"place_type":"Factory"},{"name":"North","latitude":40.0,"longitude":127.0,"place_type":"Country"}]}