{"people":["Chris Omollo","Samuel Mbuthia","Mr Allan Ragi","Mary Wair","Mbagathi","James Ndirangu","Mudiembo","Allan Ragi","Ndirangu","Eva Wangechi","Mbuthia","Angela Lumosi","Mary Wairimu"],"organizations":["Kenya Aids NGOs","National Hospital","Nelson","Kariobangi Outreach Clinic","Association","Jamia Mosque","Kariobangi Catholic Church","Eastern","Ngummo Estate","National Bank Building","Teresa's High School","Kenya Association     of Professional","Corner House","NGOs","Joint United                                                                                                                                                     Yaya Gold Card Centre    Nation","Community         Self-Help   Programme","Ronald Ngala                                                                                                                                                                                            Street","United Nations","Department     of Defence","Sanoda House","Health Centre","Fourth Sessional Paper                                                      Pangani","Lumosi of Nairobi's Kibera Community Self-Help Programme","VCT Centre","UNAids","MUCHEMI WACHIRA                                                                                                                                                              Where","Eunice                                                                                                                                                         munity Health Services","Mumbi House","Shauri Moyo Catholic","Canaa'n     Medical    Services","Martin             Family Life Promotion Services","AAR Health Services","James           Family Life Counselling Association","Gachiriro Primary School","Monica Wambui"],"places":[{"name":"Ngara","latitude":-7.68386,"longitude":112.25804,"place_type":"City"},{"name":"Nairobi","latitude":-1.28333,"longitude":36.81667,"place_type":"City"},{"name":"Kenya","latitude":1.0,"longitude":38.0,"place_type":"Country"},{"name":"Park Road","latitude":31.5066,"longitude":74.3371,"place_type":"Road"},{"name":"Bethesda","latitude":38.98067,"longitude":-77.10026,"place_type":"City"},{"name":"South B","latitude":-30.0,"longitude":26.0,"place_type":"Country"},{"name":"Eastleigh","latitude":-26.98023,"longitude":26.67272,"place_type":"City"},{"name":"Nyeri","latitude":-0.42013,"longitude":36.94759,"place_type":"City"},{"name":"Jerusalem","latitude":31.77902,"longitude":35.2253,"place_type":"City"},{"name":"St.","latitude":-34.61315,"longitude":-58.37723,"place_type":"City"}]}