{"people":["Sylvanus Olympio","Jerry Rawlings","Larry Ellison","Kabbah","Yoweri Museveni","Muammar Gaddafi","Sankoh","Mr Mbeki","Bill Gates","Thabo Mbeki","Leone","Mr Mandela","Gaddafi","Laurent Kabila","Meles Zena"],"organizations":["dP","13th Interna","Rupert Murdoch","Heads of State","Treasury","SUNDAY    NATION       Nairobi","Organisation of African Unity","Lome","OAU","African Union"],"places":[{"name":"Ghana","latitude":8.0,"longitude":-2.0,"place_type":"Country"},{"name":"Idaho","latitude":44.5002,"longitude":-114.25118,"place_type":"Adm"},{"name":"US","latitude":39.76,"longitude":-98.5,"place_type":"Country"},{"name":"Morocco","latitude":32.0,"longitude":-5.0,"place_type":"Country"},{"name":"Burkina Faso","latitude":13.0,"longitude":-2.0,"place_type":"Country"},{"name":"Lome","latitude":6.13748,"longitude":1.21227,"place_type":"City"},{"name":"Libya","latitude":25.0,"longitude":17.0,"place_type":"Country"},{"name":"Togo","latitude":8.0,"longitude":1.16667,"place_type":"Country"},{"name":"Afri","latitude":39.56742,"longitude":2.98189,"place_type":"City"},{"name":"Kenya","latitude":1.0,"longitude":38.0,"place_type":"Country"},{"name":"Durban","latitude":-29.8579,"longitude":31.0292,"place_type":"City"},{"name":"Africa","latitude":-30.0,"longitude":26.0,"place_type":"Country"},{"name":"South Africa","latitude":-30.0,"longitude":26.0,"place_type":"Country"}]}