{"people":["Lieberman","Antoine","C.P.","Chandrika Kumara","Mr Gore","Noga","Hadihalle   Wimalarasa","Clinton","Daniel Guyot","Hussain","Wahid","Ali Owais","Mr Breaux","Mr Lieberman","Vladimir Putin"],"organizations":["Monday              Louisiana Senator John Breaux           Clinton","Senate","Forbidden City","Putin","NBC","Reuters","Noga","United Nations","United Arab Emir","Consultative     Assembly","Connecticut                                                 Korkmaz"],"places":[{"name":"US","latitude":39.76,"longitude":-98.5,"place_type":"Country"},{"name":"Moscow","latitude":55.75,"longitude":37.5,"place_type":"Adm"},{"name":"JAKARTA","latitude":-6.21462,"longitude":106.84513,"place_type":"City"},{"name":"PARIS","latitude":48.85339,"longitude":2.34864,"place_type":"Adm"},{"name":"Indonesia","latitude":-5.0,"longitude":120.0,"place_type":"Country"},{"name":"The Connecticut","latitude":41.25544,"longitude":-72.83354,"place_type":"Hospital"},{"name":"Noga","latitude":42.30347,"longitude":42.72555,"place_type":"City"},{"name":"Colombo","latitude":6.8664,"longitude":80.0166,"place_type":"Adm"},{"name":"Israel","latitude":31.5,"longitude":34.75,"place_type":"Country"},{"name":"COLOMBO","latitude":6.8664,"longitude":80.0166,"place_type":"Adm"},{"name":"Connecticut","latitude":41.66704,"longitude":-72.66648,"place_type":"Adm"},{"name":"India","latitude":20.0,"longitude":77.0,"place_type":"Country"},{"name":"France","latitude":46.0,"longitude":2.0,"place_type":"Country"},{"name":"WASHINGTON","latitude":47.50012,"longitude":-120.50147,"place_type":"Adm"},{"name":"Paris","latitude":48.85339,"longitude":2.34864,"place_type":"Adm"},{"name":"Beijing","latitude":40.25,"longitude":116.5,"place_type":"Adm"},{"name":"Soviet Union","latitude":38.90344,"longitude":-77.03942,"place_type":"Pond"},{"name":"Russia","latitude":60.0,"longitude":100.0,"place_type":"Country"},{"name":"Philip","latitude":13.11667,"longitude":-59.46667,"place_type":"Adm"},{"name":"Middle East","latitude":41.06665,"longitude":-104.65996,"place_type":"GisFeature"},{"name":"China","latitude":35.0,"longitude":105.0,"place_type":"Country"}]}