{"people":["Guei","Mohamed Aideed","Thabo","Mohamed Siad","Yalahow","Manne Dipico","Musa Sudi Yalahow","Muammar Gaddafi","Morgan Tsvangi","Ncube","Aideed","Lazarus Nkomo","Nkomo","Mogad","Seydou                                                                                                                                                                                           Diarra","Sunday               Zacharia       Nkomo","Dipico","Hussein","Gomis","Charles Taylor","Alassane Ouat","Mbeki"],"organizations":["Ali Mahdi Mohamed","CMC Engineering Ltd","American                                  County","Reuters","Lome","Communica","Aideed","Lome                                                                                                                  MDC","Foreign Minister Charles","Conakry","Nkomo","Macy's","AFP","Tsvangirai","USA","Northern Cape Province","MDC","State","VIE                          Service","General Robert Guei","ANC"],"places":[{"name":"Sirte","latitude":31.20892,"longitude":16.58866,"place_type":"City"},{"name":"Kimberley","latitude":-28.73226,"longitude":24.76232,"place_type":"City"},{"name":"Togo","latitude":8.0,"longitude":1.16667,"place_type":"Country"},{"name":"Libya","latitude":25.0,"longitude":17.0,"place_type":"Country"},{"name":"Abdul","latitude":19.66667,"longitude":76.88333,"place_type":"City"},{"name":"Uganda","latitude":2.0,"longitude":33.0,"place_type":"Country"},{"name":"Zimba","latitude":-5.31667,"longitude":27.3,"place_type":"City"},{"name":"CONAKRY","latitude":11.0,"longitude":-10.0,"place_type":"Country"},{"name":"Monrovia","latitude":6.30054,"longitude":-10.7969,"place_type":"City"},{"name":"Guinea","latitude":11.0,"longitude":-10.0,"place_type":"Country"},{"name":"MOGADISHU","latitude":2.03711,"longitude":45.34375,"place_type":"City"},{"name":"Santa Monica","latitude":34.01945,"longitude":-118.49119,"place_type":"City"},{"name":"HARARE","latitude":-17.82935,"longitude":31.05389,"place_type":"City"},{"name":"Africa","latitude":-30.0,"longitude":26.0,"place_type":"Country"},{"name":"South Africa","latitude":-30.0,"longitude":26.0,"place_type":"Country"},{"name":"LOME","latitude":6.13748,"longitude":1.21227,"place_type":"City"},{"name":"Djibouti","latitude":11.5,"longitude":42.5,"place_type":"Country"},{"name":"Jowhar","latitude":2.78087,"longitude":45.50048,"place_type":"City"},{"name":"JOHANNESBURG","latitude":-26.20227,"longitude":28.04363,"place_type":"City"},{"name":"Zimbabwe","latitude":-19.0,"longitude":29.0,"place_type":"Country"},{"name":"Somalia","latitude":6.0,"longitude":48.0,"place_type":"Country"}]}