{"people":["Dr. Mwathi Centre"],"organizations":["Family Health Plaza           Opposite Mbagathi RoadlLangata Road Junction","Teresa's Church","Nairobi West Family Health C                                                                                                                                               Ith Centre","Embu Clinic","Management of Repro~ve       Health","Clinic      Kenyatta Avenue                                                                                                                                                        Towers","Kisii                                                                   Meru Clinic       Workshop Road                                                                                                                                               Mwendantu","Family Planning                                                            Association of Kenya                                                             Head Office","Youth Counselling Centre      Eastleigh Youth Counselling Centr","Ribeiro House Clinic      Ribeiro House","Kisumu                                                                            Family Health Centre","Clinic      Luthuli Avenue","Mombasa","Eastleigh Clinic                                                     P. O. Box","Reproductive Health Service","Thika Clinic                                                          Hospital Road       Dr. Mwathi Centre","Eldoret      Phoenix House Clinic      Phoenix House","Nairobi West Family Health Centre","Nairobi                                                                                                                                     Njagi Rurima Bldg","Clinics      Nakuru                                                              Kisumu                                                                        Kakamega      Family Health Centre                                                Tivoli Centre                                                                 Kholera House      Oginga Odinga Ave/Market Road Junction                              Court Road                                                                    Canon Awori Street"],"places":[{"name":"Kakamega","latitude":0.28422,"longitude":34.75228,"place_type":"City"},{"name":"Nairobi","latitude":-1.28333,"longitude":36.81667,"place_type":"City"},{"name":"Eldoret","latitude":0.52036,"longitude":35.26992,"place_type":"City"},{"name":"Nakuru","latitude":-0.28333,"longitude":36.06667,"place_type":"City"},{"name":"Kisumu","latitude":-0.10221,"longitude":34.76171,"place_type":"City"},{"name":"Embu","latitude":-23.64664,"longitude":-46.85386,"place_type":"Adm"},{"name":"Thika","latitude":-1.03326,"longitude":37.06933,"place_type":"City"}]}