{"people":["Bernard Gachie","Allan Gathuru","Mr                                                                                            Errol Johnson","Boaz Waruku","Mr Ogongo","Rod Woollard","Kivutha Kibwana","VICTOR NZUMA","Zachary Ogongo","Perkins","Cllr Nicholas Kyengo","Joseph Kimeu Ngutu","Joseph Ngutu"],"organizations":["Opel","Mumias Sugar","Nation Mombasa","NATION Correspondent Fifty-five","Mayor Dickson Oksimba","General Motors Kenya Limited","Council","Stamford Alternators","NGO","OPEL                                                                                         Call Mary","Finance Corporation","Inter-Party Parliamentary Group","Salome Nduta","Busia District                                                                                            Hospital","National Convention Execu","Kyeleni Location","NCEC","Machakos District","Ndithini Division","GM","Parts Department of","Coast Market","Isuzu","Industrial Area"],"places":[{"name":"Nairobi","latitude":-1.28333,"longitude":36.81667,"place_type":"City"},{"name":"Western                                                                                            Province","latitude":-34.0,"longitude":20.0,"place_type":"Adm"},{"name":"Kenya","latitude":1.0,"longitude":38.0,"place_type":"Country"},{"name":"Makueni","latitude":-1.80409,"longitude":37.62034,"place_type":"City"},{"name":"Thika District","latitude":-1.08333,"longitude":37.08333,"place_type":"GisFeature"},{"name":"Busia District","latitude":0.45444,"longitude":34.07583,"place_type":"City"},{"name":"Busia","latitude":0.45444,"longitude":34.07583,"place_type":"City"},{"name":"Bungoma","latitude":0.5635,"longitude":34.56055,"place_type":"City"},{"name":"Machakos","latitude":-1.51667,"longitude":37.26667,"place_type":"City"},{"name":"Mombasa","latitude":-4.05466,"longitude":39.66359,"place_type":"City"}]}