{"people":["Mr Mate","Ken"],"organizations":["Coffee Board","The Kenya Sugar Authority","Treasury","Ministry of Health","Nairobi Town Clerk Geoffrey Mate","Donation Week","Government","City Hall","World Health Organisation","Rift Valle","USAid","Tea Board of Kenya","NATION         Nairobi","Kenya National Trading Corporatio","National Trading Corporation"],"places":[{"name":"Kakamega","latitude":0.28422,"longitude":34.75228,"place_type":"City"},{"name":"Nairobi","latitude":-1.28333,"longitude":36.81667,"place_type":"City"},{"name":"Kenya","latitude":1.0,"longitude":38.0,"place_type":"Country"},{"name":"Western Kenya","latitude":0.5,"longitude":34.58333,"place_type":"Adm"},{"name":"Western     Kenya","latitude":0.5,"longitude":34.58333,"place_type":"Adm"},{"name":"Kisii","latitude":-0.68174,"longitude":34.76666,"place_type":"City"},{"name":"Garissa","latitude":-0.45355,"longitude":39.64011,"place_type":"City"},{"name":"Kisumu","latitude":-0.10221,"longitude":34.76171,"place_type":"City"},{"name":"Nzoia","latitude":0.45337,"longitude":34.61038,"place_type":"GisFeature"},{"name":"Embu","latitude":-23.64664,"longitude":-46.85386,"place_type":"Adm"},{"name":"Bungoma","latitude":0.5635,"longitude":34.56055,"place_type":"City"},{"name":"Mombasa","latitude":-4.05466,"longitude":39.66359,"place_type":"City"},{"name":"South Nyanza","latitude":-0.75,"longitude":34.41667,"place_type":"GisFeature"}]}