{"people":["Kilimani","Noah Katana Ngala","Salim Bwika","Mr Dick"],"organizations":["Kenya National Library Service","Focus Publications","Transcription    Services","Eastern","Information Commu","World Blind Union","Central and Southern","•                                                               Force Foundation of Netherlands","Issuance of International Standard","Force Foundation of                  National Library Service","• Human Resource Capacity","Foreign Resource Centre","National Language","HIV /Aids Information Services","ILO","Referral Services","National Resource","Perkins Brailler Machines","Thika School","Coast","Force Fourtda~       Resource Sharing","Spoken Books","IFLA","Community","Inter","Library and Information Services","Library Service","Lenana        Resource","Bank","Closed Circuit Television             Reference","Kilimani   Special   School","National Book Week Celebra","Silver Springs     Hotel","Library Advisory Services","KNLS Board","Federation of Library","Southern Africa","Dorothy Duncan Library","Dick Tucker Project Co","World                                                                                           Zambian National Library","Force Foundation","Machakos Technical Train","National Library","Institutional Services","Information      Serv","Kiswahili"],"places":[{"name":"Nairobi","latitude":-1.28333,"longitude":36.81667,"place_type":"City"},{"name":"Tanzania","latitude":-6.0,"longitude":35.0,"place_type":"Country"},{"name":"Kajiado","latitude":-1.85238,"longitude":36.77683,"place_type":"City"},{"name":"East","latitude":-5.0,"longitude":120.0,"place_type":"Country"},{"name":"Uganda","latitude":2.0,"longitude":33.0,"place_type":"Country"},{"name":"Kampala","latitude":0.31628,"longitude":32.58219,"place_type":"City"},{"name":"Phoenix","latitude":33.4492,"longitude":-112.0784,"place_type":"GisFeature"},{"name":"Grahamstown","latitude":-33.30422,"longitude":26.53276,"place_type":"City"},{"name":"Kenya","latitude":1.0,"longitude":38.0,"place_type":"Country"},{"name":"Kisii","latitude":-0.68174,"longitude":34.76666,"place_type":"City"},{"name":"Southern Africa","latitude":-33.98333,"longitude":18.475,"place_type":"GisFeature"},{"name":"Africa","latitude":-30.0,"longitude":26.0,"place_type":"Country"},{"name":"Malawi","latitude":-13.5,"longitude":34.0,"place_type":"Country"},{"name":"South Africa","latitude":-30.0,"longitude":26.0,"place_type":"Country"},{"name":"Norway","latitude":62.0,"longitude":10.0,"place_type":"Country"},{"name":"Netherlands","latitude":-5.0,"longitude":120.0,"place_type":"Country"},{"name":"Zimbabwe","latitude":-19.0,"longitude":29.0,"place_type":"Country"}]}