{"people":["Lang","Mr Odinga","Noah Wekesa","Abisai Angot         Odinga","Nairobl                                                   Mr Wamawla","Mr Elijah Shamalla","Protus Lumiti                                            Bakari Mkala","Andrew Mondoh","Madoka","Mr Angote","Mrs Jerita Mutenyo","Mrs Mutenyo","Stephen Rutto","Kanu","Karen","John Ruganda                                                                                 James Orengo","Peter Masereti"],"organizations":["Catholic                                          Government","Orengo","Lugari District","National Development Part          Sh3","NDP","Control Council","Nyumbani Home","THE KENYA NATIONAL THEATRE  Election","Aids Committe                                                     Mageuzi","Nandi District","Raila Odinga","Kenyan                          University   of East Africa","Wamalwa","5  NATIONAL NEWS  NDP","General Election","Valentine Madle","Aldai Division"],"places":[{"name":"Nairobi","latitude":-1.28333,"longitude":36.81667,"place_type":"City"},{"name":"Kenya","latitude":1.0,"longitude":38.0,"place_type":"Country"},{"name":"Kibera","latitude":0.65,"longitude":28.76667,"place_type":"City"},{"name":"Kwale","latitude":5.70632,"longitude":6.43741,"place_type":"City"},{"name":"Kisumu","latitude":-0.10221,"longitude":34.76171,"place_type":"City"},{"name":"Nyeri","latitude":-0.42013,"longitude":36.94759,"place_type":"City"},{"name":"Kaptumo","latitude":0.07522,"longitude":35.07103,"place_type":"City"}]}