{"people":["Maitha","Nandi","Allan Kahole","Balala","Mr Maalim","Maalim","Musikari Kombo","Madoka","NATION Corr","Mr Konbo","Mr Najib Bal","Mr Nyaga","Kanu","Mr Balala","Mr Ibrahim Maali","Norman Nyaga"],"organizations":["Institute      for Higher Education","Mayor Mwalimu Masoud Mwa","Parliament","Eastern","National Aids Con","Aids     National Chamber l' Commerce","NCPB","ActionAid","INtel Computers Data Processing","The Ministry of Agriculture","Coast","The Bu","Health, Labour","MP                                                                                                                                                                                                Paper Social Hall","Trans Nzoia","BA ASA                      Strategic","Pirelli","Physically          Kisumu Mayor Ahmed Shabir Shakeel","Kenya Institute","National","Parlianentary Committee","Mombasa","Uasin     duce Board","Shaddy Academy","Government","Ulcers","Civil Service","State Marsden","Town Ha I.                  Mombasa","NATION Correspondent     Presi&nl"],"places":[{"name":"Kenya","latitude":1.0,"longitude":38.0,"place_type":"Country"},{"name":"NGARA","latitude":-7.68386,"longitude":112.25804,"place_type":"City"},{"name":"Rift Valley","latitude":0.5,"longitude":36.0,"place_type":"Adm"},{"name":"Eldoret","latitude":0.52036,"longitude":35.26992,"place_type":"City"},{"name":"KIAMBU","latitude":-1.16667,"longitude":36.83333,"place_type":"City"},{"name":"THIKA","latitude":-1.03326,"longitude":37.06933,"place_type":"City"},{"name":"Mombasa","latitude":-4.05466,"longitude":39.66359,"place_type":"City"}]}