{"people":["Kimani","PATRICK MATHANGANI                        Marl Wathuti","Mr Kangi","Peter Kariuki Muchiri","Wachiuri Kahiga","Mr Githiga","Kiriaini","Wathuti","William Maina","Ammon Oluoch","Muriuki Gichau","Mr Githi","Oluoch","Mr Muriuki Murega","Mr Peter","V. O. Juma","Juma"],"organizations":["Sakos Training College","Gichugu Member of Parliament Martha Karua","Defence","Government","Telkom Kenya Limited","Power & Lighting                                          Co. Ltd","Ma.ss Communications","Local Government Minister Joseph","Maina Njakwe","Kenya Institute","District Hospital","Murang","NATION Correspondent                                                  Murang","EOn"],"places":[{"name":"Nairobi","latitude":-1.28333,"longitude":36.81667,"place_type":"City"},{"name":"Nyeri District","latitude":3.76667,"longitude":31.85,"place_type":"Mountain"},{"name":"Kisumu","latitude":-0.10221,"longitude":34.76171,"place_type":"City"},{"name":"Kangaita","latitude":-0.43333,"longitude":37.26667,"place_type":"Stream"},{"name":"Nyeri","latitude":-0.42013,"longitude":36.94759,"place_type":"City"},{"name":"Parklands","latitude":-38.2,"longitude":144.56667,"place_type":"Farm"},{"name":"Mombasa","latitude":-4.05466,"longitude":39.66359,"place_type":"City"},{"name":"Kahuti","latitude":-0.7,"longitude":36.95,"place_type":"School"}]}