{"people":["Guardi","Thabo Mbeki","Mbeki"],"organizations":["Mande","Third World            Western Kenya","Cea"],"places":[{"name":"Afri","latitude":39.56742,"longitude":2.98189,"place_type":"City"},{"name":"New York","latitude":43.00035,"longitude":-75.4999,"place_type":"Adm"},{"name":"Paris","latitude":48.85339,"longitude":2.34864,"place_type":"Adm"},{"name":"Africa","latitude":-30.0,"longitude":26.0,"place_type":"Country"},{"name":"South Africa","latitude":-30.0,"longitude":26.0,"place_type":"Country"},{"name":"Frankfurt","latitude":50.11035,"longitude":8.67185,"place_type":"Adm"},{"name":"London","latitude":51.50853,"longitude":-0.12574,"place_type":"City"}]}