{"people":["Mr     Mbogah","Mr   Mbogah","Abungu","Mr Khamis Salim Nyundo","George      Abungu","Njuri Ncheke","Brandl","EDMUND KWENA                               century Thimbli Chohimbi","Moses Wandiema","Khamis Mbogah","Cllr Salim Bajaber","Raphael Livu"],"organizations":["Council","Early Childhood Programs","Finance Committee Chair","Reliance Bank Ltd","University","Reliance Building","NGOs","AMBANK House","Mombasa Municipal Council             Kamotho","National Housing Corpora","Central Bank of Kenya Building","Fortune Finance Ltd","Committee","Nairobi                               Nairobi       Born","NGO","Bullion Bank Building","Prudential Bank Ltd","Mombasa","Moi University","European Union","PowerPoint","Central Bank Building                 Central Bank Building Central Bank Building","Wageningen           Univer","NATION Correspondent               Authorities     Minister      Joseph","Reliance Bank Ltd.","Prof Raphael MUI","Program Department"],"places":[{"name":"Nairobi","latitude":-1.28333,"longitude":36.81667,"place_type":"City"},{"name":"NAIROBI","latitude":-1.28333,"longitude":36.81667,"place_type":"City"},{"name":"Kenya","latitude":1.0,"longitude":38.0,"place_type":"Country"},{"name":"P.O.","latitude":39.66472,"longitude":106.81222,"place_type":"City"},{"name":"Kilifi","latitude":-3.63045,"longitude":39.84992,"place_type":"City"},{"name":"Africa","latitude":-30.0,"longitude":26.0,"place_type":"Country"},{"name":"Lamu","latitude":-2.27169,"longitude":40.90201,"place_type":"City"},{"name":"Netherlands","latitude":-5.0,"longitude":120.0,"place_type":"Country"},{"name":"Nyanza","latitude":-0.5,"longitude":34.5,"place_type":"Adm"},{"name":"Mombasa","latitude":-4.05466,"longitude":39.66359,"place_type":"City"},{"name":"Zimbabwe","latitude":-19.0,"longitude":29.0,"place_type":"Country"}]}