{"people":["Rice","Tom Nyamache","Philemon Abong","Erastus K. Omolo","George W. Bush","Ghai","Emily Auma Baraza","Joshua Awori","Mr Tutt","Simeon","Juan    Echave Garicache","Nyachae","Mwai Kibaki","Susan Rice","Kanu","James Orengo","Tom Baraza Oketch","Susan Mwadime","Bill pinton","Mariah Carey"],"organizations":["Charity Ngilu","Sunday Nation","Rachuonyo District","United Nation","Hudson Gumbihi","Franco             Government","Ufungamano People","National","Dunia Mbaya","Nyayo Express","Gendia Hospital","World Bank","University of Nai","UNAIDS","The Ufungamano     Initiative       Stilte House","Mageuzi","Raila Odinga","Africa","United Nations"],"places":[{"name":"Britain","latitude":54.0,"longitude":-4.0,"place_type":"Country"},{"name":"United States","latitude":39.76,"longitude":-98.5,"place_type":"Country"},{"name":"Nairobi","latitude":-1.28333,"longitude":36.81667,"place_type":"City"},{"name":"Muthurwa","latitude":-1.16667,"longitude":36.75,"place_type":"City"},{"name":"Spain","latitude":40.0,"longitude":-4.0,"place_type":"Country"},{"name":"Nakuru","latitude":-0.28333,"longitude":36.06667,"place_type":"City"},{"name":"Kenya","latitude":1.0,"longitude":38.0,"place_type":"Country"},{"name":"Manston","latitude":50.95,"longitude":-2.26667,"place_type":"City"},{"name":"The Bank","latitude":13.55,"longitude":-15.66667,"place_type":"Adm"},{"name":"Africa","latitude":-30.0,"longitude":26.0,"place_type":"Country"},{"name":"Botswana","latitude":-22.0,"longitude":24.0,"place_type":"Country"},{"name":"Homa Bay","latitude":-0.52731,"longitude":34.45714,"place_type":"City"},{"name":"South Africa","latitude":-30.0,"longitude":26.0,"place_type":"Country"},{"name":"Burgos","latitude":42.33939,"longitude":-3.70789,"place_type":"Adm"},{"name":"Oyugis","latitude":-0.50898,"longitude":34.73583,"place_type":"City"},{"name":"Zimbabwe","latitude":-19.0,"longitude":29.0,"place_type":"Country"}]}