{"people":["Pat Cronin","Peter Harper","Edemariam Tsego","Davy Koech"],"organizations":["USAID","UNICEF","Prevention of Clinical Aids","Aga Khan Health Service","University of Addis Ababa","Ford Foundation","Kenya Medical Research Institute","Muhimbili Hospital","Primary Health Care Projects","ODA","Khan Health Services","Aga Khan Health Services","Health Services","Guy's Hospital","Aga Khan University","Canadian International Development Agency","World Health Organisation","Aga Khan University Hospital","University of Nairobi","International Student Exchange","Dar es Salaam"],"places":[{"name":"Nairobi","latitude":-1.28333,"longitude":36.81667,"place_type":"City"},{"name":"Tanzania","latitude":-6.0,"longitude":35.0,"place_type":"Country"},{"name":"Pakistan","latitude":30.0,"longitude":70.0,"place_type":"Country"},{"name":"East Africa","latitude":-18.25,"longitude":35.0,"place_type":"Country"},{"name":"Syria","latitude":35.0,"longitude":38.0,"place_type":"Country"},{"name":"Mombasa","latitude":-4.05466,"longitude":39.66359,"place_type":"City"},{"name":"London","latitude":51.50853,"longitude":-0.12574,"place_type":"City"},{"name":"India","latitude":20.0,"longitude":77.0,"place_type":"Country"},{"name":"Kenya","latitude":1.0,"longitude":38.0,"place_type":"Country"},{"name":"Kwale","latitude":5.70632,"longitude":6.43741,"place_type":"City"},{"name":"Karachi","latitude":24.9056,"longitude":67.0822,"place_type":"City"},{"name":"Kisumu","latitude":-0.10221,"longitude":34.76171,"place_type":"City"},{"name":"Bangladesh","latitude":24.0,"longitude":90.0,"place_type":"Country"}]}