{"people":["Grace Kiringa","Joseph Sitienei","Judy Waguma","Tido von Schoen-Angerer"],"organizations":["Africa Science News Service","Kenyatta National Hospital","MSF","World Health Organisation","Moi Referral and Training Hospital"],"places":[{"name":"Nairobi","latitude":-1.28333,"longitude":36.81667,"place_type":"City"},{"name":"Kenya","latitude":1.0,"longitude":38.0,"place_type":"Country"},{"name":"Kibera","latitude":0.65,"longitude":28.76667,"place_type":"City"},{"name":"Mathare","latitude":-1.28333,"longitude":34.81667,"place_type":"School"},{"name":"Eldoret","latitude":0.52036,"longitude":35.26992,"place_type":"City"},{"name":"Africa","latitude":-30.0,"longitude":26.0,"place_type":"Country"},{"name":"Siaya","latitude":0.06116,"longitude":34.28823,"place_type":"City"},{"name":"Homa Bay","latitude":-0.52731,"longitude":34.45714,"place_type":"City"},{"name":"Nyanza","latitude":-0.5,"longitude":34.5,"place_type":"Adm"}]}