{"people":["Mbugua","Steve Mbugua","Felicina","Consolata","Consolata Ayako"],"organizations":["Shl","Faith Evangelistic Ministries","Felicina","Faith Rescue Network","Consolata"],"places":[{"name":"Nairobi","latitude":-1.28333,"longitude":36.81667,"place_type":"City"},{"name":"Kasarani","latitude":-1.10972,"longitude":37.07692,"place_type":"CitySubdivision"},{"name":"Nyeri","latitude":-0.42013,"longitude":36.94759,"place_type":"City"},{"name":"Machakos","latitude":-1.51667,"longitude":37.26667,"place_type":"City"},{"name":"Thika","latitude":-1.03326,"longitude":37.06933,"place_type":"City"}]}