{"people":["Maitha","Geoffrey Mongare Ondimu","James Adoli","Mr Kent Mokaya","James Mokaya Ogega","Eker","Joe Aketch","MIKE MW ANIKI","Charles Mchumbe Ogega","Mr Mayaka","Kanu","Isaac Machengo","Photo/Joseph Mathenge","Aketch","David Mwenje","Mr Barnabas","Mr Maitha","Ogongo","Douglas Maragia","Evan Gicheru","Mr Gideon Ambogo","Kiarie Waweru                                              Mrs Mugo","Mr Ogongo","Mr                                                   University","Beth Mugo","Margaret Mukundi","Zach","Karisa Maitha","Elizabeth Ayumba","William Omondi"],"organizations":["Sbl","Samuel Soita","Egerton         ~","Government","Gesa","Nyamira","Coast","Machengo","Jogoo House","Moody Awori","City Market","EMU","Local Government"],"places":[{"name":"Nairobi","latitude":-1.28333,"longitude":36.81667,"place_type":"City"},{"name":"Dakar","latitude":14.6937,"longitude":-17.44406,"place_type":"City"},{"name":"Kasarani","latitude":-1.10972,"longitude":37.07692,"place_type":"CitySubdivision"},{"name":"Kibera","latitude":0.65,"longitude":28.76667,"place_type":"City"},{"name":"Thika District","latitude":-1.08333,"longitude":37.08333,"place_type":"GisFeature"},{"name":"Six US","latitude":34.17513,"longitude":-82.02401,"place_type":"City"},{"name":"Bungoma","latitude":0.5635,"longitude":34.56055,"place_type":"City"},{"name":"Mombasa","latitude":-4.05466,"longitude":39.66359,"place_type":"City"},{"name":"Thika","latitude":-1.03326,"longitude":37.06933,"place_type":"City"},{"name":"City Hall","latitude":40.92196,"longitude":-98.36617,"place_type":"GisFeature"},{"name":"Kisii","latitude":-0.68174,"longitude":34.76666,"place_type":"City"}]}