{"people":["Martha Koome","Guardi","Passaris","Chiti Exefllnl","Phil","Nigeri","Hussein","Karen","Kibaki","Mr Onyango-Obbo","John Garang"],"organizations":["British Airways Boeing           Lower","Nyumbani Children","Nairobi                hy Nation M~dia Group Limited","Justice","Natioo Media Gronp","First ViceÂ·","Nairobi City Council","Title Research","FBI","Government","Nation Media Group","Nation","W.          Government"],"places":[{"name":"Thailand","latitude":15.0,"longitude":100.0,"place_type":"Country"},{"name":"West","latitude":30.86017,"longitude":72.31976,"place_type":"Adm"},{"name":"Dulles","latitude":39.03761,"longitude":-77.41582,"place_type":"City"},{"name":"England","latitude":54.0,"longitude":-4.0,"place_type":"Country"},{"name":"Mombasa Road","latitude":-1.46667,"longitude":37.03333,"place_type":"Road"},{"name":"Dari","latitude":8.1537,"longitude":-77.69308,"place_type":"City"},{"name":"Israel","latitude":31.5,"longitude":34.75,"place_type":"Country"},{"name":"Islington","latitude":51.53622,"longitude":-0.10304,"place_type":"City"},{"name":"London","latitude":51.50853,"longitude":-0.12574,"place_type":"City"},{"name":"Iraq","latitude":33.0,"longitude":44.0,"place_type":"Country"},{"name":"Heathrow","latitude":28.76333,"longitude":-81.37224,"place_type":"City"},{"name":"Kenya","latitude":1.0,"longitude":38.0,"place_type":"Country"},{"name":"North","latitude":40.0,"longitude":127.0,"place_type":"Country"},{"name":"China","latitude":35.0,"longitude":105.0,"place_type":"Country"},{"name":"Atlantic","latitude":39.46678,"longitude":-74.66627,"place_type":"Adm"},{"name":"Britain","latitude":54.0,"longitude":-4.0,"place_type":"Country"},{"name":"Nairobi","latitude":-1.28333,"longitude":36.81667,"place_type":"City"},{"name":"Tel Aviv","latitude":32.08333,"longitude":34.8,"place_type":"Adm"},{"name":"Lagos","latitude":6.58333,"longitude":3.75,"place_type":"Adm"},{"name":"Washington","latitude":47.50012,"longitude":-120.50147,"place_type":"Adm"},{"name":"Wales","latitude":-33.0,"longitude":146.0,"place_type":"Adm"},{"name":"Sudan","latitude":16.0,"longitude":30.0,"place_type":"Country"},{"name":"City","latitude":19.42847,"longitude":-99.12766,"place_type":"City"},{"name":"JFK Airport","latitude":40.6913,"longitude":-73.806,"place_type":"Hotel"},{"name":"North London","latitude":45.30108,"longitude":-94.94418,"place_type":"City"},{"name":"New York","latitude":43.00035,"longitude":-75.4999,"place_type":"Adm"},{"name":"Romania","latitude":46.0,"longitude":25.0,"place_type":"Country"}]}