{"people":["Mbum Mucoki","Mr Muiruri","Henlison","Mr Mwai Kibaki","Shadrack Muriuki","Kivutha","Wilfred Kiboro","Mr Pius Nyamora","Kituyi","Gikonyo","Lucas Barasa","Tom Oscar Alwaka","MWENDA NJOKA","Kanu","Patrick Muiruri","John Kituyi","Mr Wako","Mr Peter Warutere","Gatabaki           Mr Nyamora","Mr Murithi Itunga","Mutahi","Daniel Kamau","Mr Kinyua Mutahi","Mr Mucoki","Mr Raphael","Mr Speaker","Naaman Gitonga","Mr Tuju","Mithika Mwenda","Mr Njururi"],"organizations":["House       General","Shl","Westlands","Coast Province","Parliament","Newspa","Railway Commercial Offices","Meru News","Muthuri Nya","Murang","Macharia","House","Kenya Broadcasting Corporation  Party","Nairobi Times","Central Police Station","HANSARD     How Parliament","Catholic Church","Kenya News","Ford","Kenya Confidential","BA","Summit House","Blamuel Njururi","Government","Njehu Gatabaki of Finance","Kenya Times","University of Nairobi","Kenya Union of                                                                                                          Wembe","MACHARIA GAITHO                                                                                                                     Press"],"places":[{"name":"Nairobi","latitude":-1.28333,"longitude":36.81667,"place_type":"City"},{"name":"Kenya Limited","latitude":-4.38029,"longitude":39.5168,"place_type":"Plantation"},{"name":"P.O.","latitude":39.66472,"longitude":106.81222,"place_type":"City"},{"name":"Nakuru","latitude":-0.28333,"longitude":36.06667,"place_type":"City"},{"name":"Nyeri","latitude":-0.42013,"longitude":36.94759,"place_type":"City"},{"name":"Kibwana","latitude":-4.21667,"longitude":26.66667,"place_type":"City"},{"name":"Mombasa","latitude":-4.05466,"longitude":39.66359,"place_type":"City"},{"name":"Thika","latitude":-1.03326,"longitude":37.06933,"place_type":"City"},{"name":"Kenya","latitude":1.0,"longitude":38.0,"place_type":"Country"},{"name":"Eldoret","latitude":0.52036,"longitude":35.26992,"place_type":"City"},{"name":"Africa","latitude":-30.0,"longitude":26.0,"place_type":"Country"},{"name":"Eastlands","latitude":-30.50903,"longitude":29.82775,"place_type":"City"}]}