{"people":["Levy","Paul Tergat","Kipchoge Keino","Roy Clarke","ORI CHOTO","Clarke","Mr Chota","Joe Kadenge","Wilson Kipketer","Mr Tergat"],"organizations":["Health Organisation","United Nations World Food Programme","Nation Centre","Media Group","Nation Media Group Limited","Mombasa","State House","Zambian Government","NTIA","Government","State","ComptrollerMatere Keriri","Kenya Football Federation","Clarke","Tecla Lorupe","International Cricket Council","United Nation Global Fund"],"places":[{"name":"Nairobi","latitude":-1.28333,"longitude":36.81667,"place_type":"City"},{"name":"Kenya","latitude":1.0,"longitude":38.0,"place_type":"Country"},{"name":"Zambia","latitude":-15.0,"longitude":30.0,"place_type":"Country"},{"name":"Kibera","latitude":0.65,"longitude":28.76667,"place_type":"City"},{"name":"Eldoret","latitude":0.52036,"longitude":35.26992,"place_type":"City"},{"name":"Rome","latitude":41.96667,"longitude":12.66667,"place_type":"Adm"},{"name":"Africa","latitude":-30.0,"longitude":26.0,"place_type":"Country"},{"name":"Kisumu","latitude":-0.10221,"longitude":34.76171,"place_type":"City"},{"name":"Johannesburg","latitude":-26.20227,"longitude":28.04363,"place_type":"City"}]}