{"people":["Odhiambo","Kari"],"organizations":["Kenya Biosafety Council","Maggie Fox             Researchers","Daily Nation!","Andrew Young            Experts","Monsanto"],"places":[{"name":"Kakamega","latitude":0.28422,"longitude":34.75228,"place_type":"City"},{"name":"Muguga","latitude":-1.18333,"longitude":36.66667,"place_type":"School"},{"name":"Kenya","latitude":1.0,"longitude":38.0,"place_type":"Country"},{"name":"Kisii","latitude":-0.68174,"longitude":34.76666,"place_type":"City"},{"name":"Africa","latitude":-30.0,"longitude":26.0,"place_type":"Country"},{"name":"Mtwapa","latitude":-3.93333,"longitude":39.75,"place_type":"GisFeature"},{"name":"Embu","latitude":-23.64664,"longitude":-46.85386,"place_type":"Adm"}]}