{"people":["Mrs Charity Ngilu","Margaret Thatcher","George Bush","Bajunis","Kibaki","JOSEPH MWAWASI","Ghai","JOHN T. MUKUl","Mr Kenyatta","Jonah Koech","BRIDGET HEWETT","Mujibur Rahman","Kanu","Francois Mitterrand","Machario Gaitho"],"organizations":["Narc Government                                                The Kenya Certificate of Primary Edu","Narc Govern","Coast                                                                                           Nairobi","Brothers","Parliament","Ford","Kenya Television Network","The Ministry of Education","High Court","The Kenya Roads Board","Nairobi City Council","Natural Resources","Presidential Press Service","Government","Njoka & AP","Central Province","DP","White House","Coast","Police Reforms Programme","First Lady","Evans Monari","LDP","Eastern Province"],"places":[{"name":"Britain","latitude":54.0,"longitude":-4.0,"place_type":"Country"},{"name":"Nairobi","latitude":-1.28333,"longitude":36.81667,"place_type":"City"},{"name":"Pakistan","latitude":30.0,"longitude":70.0,"place_type":"Country"},{"name":"Zaire","latitude":0.0,"longitude":25.0,"place_type":"Country"},{"name":"Phnom Penh","latitude":11.56245,"longitude":104.91601,"place_type":"City"},{"name":"Tokyo","latitude":35.6895,"longitude":139.69171,"place_type":"Adm"},{"name":"Mongolia","latitude":44.0,"longitude":112.0,"place_type":"Adm"},{"name":"Wakamba","latitude":-1.55,"longitude":137.6,"place_type":"Stream"},{"name":"Rift Valley","latitude":0.5,"longitude":36.0,"place_type":"Adm"},{"name":"Uganda","latitude":2.0,"longitude":33.0,"place_type":"Country"},{"name":"Nyeri","latitude":-0.42013,"longitude":36.94759,"place_type":"City"},{"name":"Bungoma","latitude":0.5635,"longitude":34.56055,"place_type":"City"},{"name":"London","latitude":51.50853,"longitude":-0.12574,"place_type":"City"},{"name":"Mombasa","latitude":-4.05466,"longitude":39.66359,"place_type":"City"},{"name":"Thika","latitude":-1.03326,"longitude":37.06933,"place_type":"City"},{"name":"Cambodia","latitude":13.0,"longitude":105.0,"place_type":"Country"},{"name":"Kenya","latitude":1.0,"longitude":38.0,"place_type":"Country"},{"name":"Beijing","latitude":40.25,"longitude":116.5,"place_type":"Adm"},{"name":"Soviet Union","latitude":38.90344,"longitude":-77.03942,"place_type":"Pond"},{"name":"Embu","latitude":-23.64664,"longitude":-46.85386,"place_type":"Adm"},{"name":"South Africa","latitude":-30.0,"longitude":26.0,"place_type":"Country"},{"name":"Cape of Good Hope","latitude":35.1773,"longitude":-85.90914,"place_type":"Mountain"},{"name":"Nyanza","latitude":-0.5,"longitude":34.5,"place_type":"Adm"},{"name":"China","latitude":35.0,"longitude":105.0,"place_type":"Country"}]}