{"people":["Mr Wamalwa                                                               Speaker","Mkapa","Maoka Maore","Barnas","Danson","Subukia","Mr Maore","Kibaki","Mr Kibaki","Alfred Nderitu","Mr Mbeki","Kimunya","Thabo Mbeki","Peter Munya","Mwangi Kiunjuri","Mr Kaparo","Makau Mutuaat","Kanu","Mr Speaker","JOSEPH MUTUA","Mr Wamwere"],"organizations":["Finance","Nairobi Hospital","Parliament","Buchanan Kenya Ltd","Head of State","Michael Wamalwa Kijana","Ntonyiri","Nairobi                                                                                                              Finance","Kenya National Commission","Wellington Hospital","Government","House Speaker Francis ole                                                                                                  Similarly","Raila Odinga","House","Njeru Githae"],"places":[{"name":"Nairobi","latitude":-1.28333,"longitude":36.81667,"place_type":"City"},{"name":"Barnas","latitude":44.66667,"longitude":4.16667,"place_type":"Adm"},{"name":"Sotik","latitude":-0.78129,"longitude":35.34156,"place_type":"City"},{"name":"Tanzania","latitude":-6.0,"longitude":35.0,"place_type":"Country"},{"name":"Kenya","latitude":1.0,"longitude":38.0,"place_type":"Country"},{"name":"Subukia","latitude":-0.01667,"longitude":36.18333,"place_type":"Religious"},{"name":"Nyanza Province","latitude":-0.5,"longitude":34.5,"place_type":"Adm"},{"name":"Africa","latitude":-30.0,"longitude":26.0,"place_type":"Country"},{"name":"Europe","latitude":43.5333,"longitude":3.9833,"place_type":"Hotel"},{"name":"Kericho","latitude":-0.36774,"longitude":35.28314,"place_type":"City"},{"name":"Bureti","latitude":41.96326,"longitude":44.04535,"place_type":"Mountain"},{"name":"Nyanza","latitude":-0.5,"longitude":34.5,"place_type":"Adm"},{"name":"London","latitude":51.50853,"longitude":-0.12574,"place_type":"City"}]}