{"people":["Mark Mwandosya","Benjamin Mkapa","John Paul II","Kerry","George W. Bush","FINNIGAN","Mwandosya","John Kerry"],"organizations":["Fokker","Opole University","Earlier Year Groups                                                    Year Group","Student Finance Desk","Vish Electric Ltd  Registration Continuing Students","Earlier                                                     Year Group","Stream Aerospace Corpora","ST SEMESTER      Kenyatta University Senate","CUF","Shakespeare Protest","University","Nominal Roll","Wellesley College Shakespeare Society","Vatican","SIMBEYE","Transport and Communications","Minister of Finance","Kisumu                                                                                                                                      San Electronics Ltd                                                                                                                                      Tel","Mitha & Co","Shakespeare"],"places":[{"name":"United States","latitude":39.76,"longitude":-98.5,"place_type":"Country"},{"name":"Benghazi","latitude":32.11667,"longitude":20.06667,"place_type":"City"},{"name":"Tanza","latitude":14.33333,"longitude":120.85,"place_type":"Adm"},{"name":"US","latitude":39.76,"longitude":-98.5,"place_type":"Country"},{"name":"Tanzania","latitude":-6.0,"longitude":35.0,"place_type":"Country"},{"name":"SOFIA","latitude":42.69751,"longitude":23.32415,"place_type":"City"},{"name":"Moscow","latitude":55.75,"longitude":37.5,"place_type":"Adm"},{"name":"Massachusetts","latitude":42.36565,"longitude":-71.10832,"place_type":"Adm"},{"name":"Poland","latitude":52.0,"longitude":20.0,"place_type":"Country"},{"name":"Libya","latitude":25.0,"longitude":17.0,"place_type":"Country"},{"name":"Boston","latitude":42.35347,"longitude":-71.06094,"place_type":"GisFeature"},{"name":"Wisconsin","latitude":44.50024,"longitude":-90.00041,"place_type":"Adm"}]}