{"people":["Mrs Mir","Reagan","Alistair","Mr Cooke","Mr                                                     Mr Cooke","Nixon","Alistair Cooke","Mwanawasa","Alistair       Born Alfred Cooke","Tony Blair","Mr Mbeki","Cooke","Clinton","Nick Clarke","Steven Moyo","Tony Leon","Thabo Mbeki","Bobby Kennedy","Mr Mwanawasa","Alfred Chitoya","Levy Mwanawasa","Mrs Mokola"],"organizations":["United States Congress","African National                                                     Letter","Kenyatta International Conference Centre","BBC","Bank Ho","Shareholders of Barclays Bank                                                                                                                              of KenYilLimited","Congress","Reuters","Cambridge Universi","Yale University","Office","24th Annual General Meeting"],"places":[{"name":"Britain","latitude":54.0,"longitude":-4.0,"place_type":"Country"},{"name":"United States","latitude":39.76,"longitude":-98.5,"place_type":"Country"},{"name":"Nairobi","latitude":-1.28333,"longitude":36.81667,"place_type":"City"},{"name":"Cape Town","latitude":-33.92584,"longitude":18.42322,"place_type":"City"},{"name":"northern England","latitude":54.0,"longitude":-4.0,"place_type":"Country"},{"name":"England","latitude":54.0,"longitude":-4.0,"place_type":"Country"},{"name":"Korea","latitude":37.0,"longitude":127.5,"place_type":"Country"},{"name":"Ndola","latitude":-12.95867,"longitude":28.63659,"place_type":"City"},{"name":"Johannesburg","latitude":-26.20227,"longitude":28.04363,"place_type":"City"},{"name":"Vietnam","latitude":16.16667,"longitude":107.83333,"place_type":"Country"},{"name":"Lusaka","latitude":-15.40669,"longitude":28.28713,"place_type":"City"},{"name":"Gauteng","latitude":-26.08333,"longitude":28.25,"place_type":"Adm"},{"name":"LUSAKA","latitude":-15.40669,"longitude":28.28713,"place_type":"City"},{"name":"America","latitude":39.76,"longitude":-98.5,"place_type":"Country"},{"name":"New York","latitude":43.00035,"longitude":-75.4999,"place_type":"Adm"},{"name":"Zambia","latitude":-15.0,"longitude":30.0,"place_type":"Country"},{"name":"Africa","latitude":-30.0,"longitude":26.0,"place_type":"Country"},{"name":"Kennedy","latitude":-10.585,"longitude":142.21777,"place_type":"City"},{"name":"LONDON","latitude":51.50853,"longitude":-0.12574,"place_type":"City"},{"name":"South Africa","latitude":-30.0,"longitude":26.0,"place_type":"Country"},{"name":"JOHANNESBURG","latitude":-26.20227,"longitude":28.04363,"place_type":"City"},{"name":"Central Park","latitude":46.97343,"longitude":-123.69239,"place_type":"City"}]}