{"people":["Mr Ethangatta","Tomi Rae","US                  Brown","Danson Mwangi","Chrisantus O. Sakwa","Jeffrey James","Mr Patel","Mr S. Patel","Mwangi","Exter","Hass","Brown","Mr Kiliko","Daniel Zelman","Annett Wolf","Mr Mwangi","Makau","Zelman","Tomi Rae Brown","James Brown"],"organizations":["USAID","Edward Clay","Kenya Flower Council","Exporters Association of Kenya","GTZ","Violetta of Nairobi","Bomas Draft","DFiD","Ford-K","Nairobi'City Council","EU","Telkom","Association of Kenya","First","Debra Messing","HCDA","Watchman                                                                                                                                The Ministry of Agriculture","Matheka of Machakos","Caltex Petrol","IFAD","Caribbean and Pacific","Adams Arcade"],"places":[{"name":"Nairobi","latitude":-1.28333,"longitude":36.81667,"place_type":"City"},{"name":"Pakistan","latitude":30.0,"longitude":70.0,"place_type":"Country"},{"name":"Morocco","latitude":32.0,"longitude":-5.0,"place_type":"Country"},{"name":"Europe","latitude":43.5333,"longitude":3.9833,"place_type":"Hotel"},{"name":"Israel","latitude":31.5,"longitude":34.75,"place_type":"Country"},{"name":"Thika","latitude":-1.03326,"longitude":37.06933,"place_type":"City"},{"name":"Egypt","latitude":27.0,"longitude":30.0,"place_type":"Country"},{"name":"Muran","latitude":2.05,"longitude":37.0,"place_type":"Stream"},{"name":"Beech Island","latitude":44.90011,"longitude":-76.04937,"place_type":"Island"},{"name":"Kenya","latitude":1.0,"longitude":38.0,"place_type":"Country"},{"name":"Mexico","latitude":23.0,"longitude":-102.0,"place_type":"Country"},{"name":"Australia","latitude":-25.0,"longitude":135.0,"place_type":"Country"},{"name":"Muranga","latitude":-2.70306,"longitude":29.13056,"place_type":"Mountain"},{"name":"South Africa","latitude":-30.0,"longitude":26.0,"place_type":"Country"},{"name":"Los Angeles","latitude":33.88638,"longitude":-118.04535,"place_type":"GisFeature"}]}