{"organizations":["Ltd","F&B Sales & Service Advanced Certificate","Masters Degree in Public Health","EXIM","Food & Beverage Waiters                                                3","Severin Sea Lodge","Tanzania                                                Security Staff","C.V.","AMREF","AMREF Country Director","Police Force","Ms Office Suite","Daiiy Nation","Certificate in Food & Beverage Service","USAID","Diploma in Institutional Management","Diploma in Computer Hardware & Maintenance","National Offices","Food & Beverage Supervisors                                            5","Bank","VCT Programme","ProduGtion Maintenance","VCT/PMTCT Programme","Commercial Bank","Senior Principal                                                                                                             Board of Governors                                        Career Opportunity                     P.O. Box 82169                                                                  Kabete Technical Training Institute                     Mombasa","Research Foundation","VCT","USAID Programme","Programme","Kiswahili","Security Manager"],"places":[{"name":"North America","latitude":35.50069,"longitude":-80.00032,"place_type":"Adm"},{"name":"TANZANIA","latitude":-6.0,"longitude":35.0,"place_type":"Country"},{"name":"Tanzania","latitude":-6.0,"longitude":35.0,"place_type":"Country"},{"name":"Ethiopia","latitude":8.0,"longitude":38.0,"place_type":"Country"},{"name":"Kenya","latitude":1.0,"longitude":38.0,"place_type":"Country"},{"name":"NAIROBI","latitude":-1.28333,"longitude":36.81667,"place_type":"City"},{"name":"North Coast","latitude":-31.27395,"longitude":152.71216,"place_type":"GisFeature"},{"name":"Mozambique","latitude":-18.25,"longitude":35.0,"place_type":"Country"},{"name":"C.V.","latitude":46.41667,"longitude":20.33333,"place_type":"City"},{"name":"Africa","latitude":-30.0,"longitude":26.0,"place_type":"Country"},{"name":"Europe","latitude":43.5333,"longitude":3.9833,"place_type":"Hotel"},{"name":"Uganda","latitude":2.0,"longitude":33.0,"place_type":"Country"},{"name":"South Africa","latitude":-30.0,"longitude":26.0,"place_type":"Country"}]}