{"people":["Tom Mboya","M. Kariuki","Mr Awori","MUINDI MARTIN","Mukhisa Kituyi","Bill Clinton","Mr Nzamba Kitonga","KAHIGA WAITHAKA","Samuel Baker","Simeon Mkalla","Mr Ronald","Awori","Benazir Bhutto","Robert Ouko","Mwai Kibaki","Kanu","James Gichuru","Njiru"],"organizations":["Luvonga Sasaka & AP","Kamiti Maximum Prison","Kabarnet Mayor","Fida Kenya","Opposition","Northern Transit","Ch!ef Justice Bernard Chunga","Moody Awori","Appeal Court","Government","The Government","Narc Government","Former Zambian President Kenneth                                       Supreme Court","Medical Association","Ministry Health","State of                         Busm","Explorer Christopher Columbus","Pakistani Government","Kwale County Council","Jaramogi Odinga","Minister for Labour"],"places":[{"name":"Naivasha","latitude":-0.71667,"longitude":36.43591,"place_type":"City"},{"name":"Athi River","latitude":-1.45071,"longitude":36.98245,"place_type":"City"},{"name":"Donyo Sabuk","latitude":-1.1,"longitude":37.25,"place_type":"GisFeature"},{"name":"Spain","latitude":40.0,"longitude":-4.0,"place_type":"Country"},{"name":"Kilindini Port","latitude":-4.06934,"longitude":39.65065,"place_type":"Port"},{"name":"Nakuru","latitude":-0.28333,"longitude":36.06667,"place_type":"City"},{"name":"Nanyuki","latitude":0.01667,"longitude":37.07283,"place_type":"City"},{"name":"Mombasa Road","latitude":-1.46667,"longitude":37.03333,"place_type":"Road"},{"name":"Thika","latitude":-1.03326,"longitude":37.06933,"place_type":"City"},{"name":"Laikipia","latitude":0.41667,"longitude":36.75,"place_type":"Adm"},{"name":"Central Kenya","latitude":-0.75,"longitude":37.0,"place_type":"Adm"},{"name":"Kenya","latitude":1.0,"longitude":38.0,"place_type":"Country"},{"name":"Kakamega","latitude":0.28422,"longitude":34.75228,"place_type":"City"},{"name":"Nairobi","latitude":-1.28333,"longitude":36.81667,"place_type":"City"},{"name":"US","latitude":39.76,"longitude":-98.5,"place_type":"Country"},{"name":"Western Province","latitude":-34.0,"longitude":20.0,"place_type":"Adm"},{"name":"Garissa","latitude":-0.45355,"longitude":39.64011,"place_type":"City"},{"name":"Nyeri","latitude":-0.42013,"longitude":36.94759,"place_type":"City"},{"name":"Ndula","latitude":-11.51347,"longitude":14.57012,"place_type":"City"},{"name":"Western Kenya","latitude":0.5,"longitude":34.58333,"place_type":"Adm"},{"name":"Eldoret","latitude":0.52036,"longitude":35.26992,"place_type":"City"},{"name":"Nyahururu","latitude":0.0421,"longitude":36.36734,"place_type":"City"},{"name":"Kwale","latitude":5.70632,"longitude":6.43741,"place_type":"City"},{"name":"Machakos","latitude":-1.51667,"longitude":37.26667,"place_type":"City"}]}