{"people":["Mr Thompson","Mr Zeitz","Kenneth Chebet","Bush","William Kiarie","Tobias","Sobbie Mulindi","PAUL UDOTO                           Specifically","Mr Tobias","Mr Paul Zeitz"],"organizations":["World Health Organi","National Sexually Transmitted Diseases          Reducing","Referral Hospital","Nascop","Pepfar","US Health","Unicef","Eli Lilly","Control Programme","Crystal Hill","World Health Organisation         National Aids","Human Services","President Emergency Programme","World Bank","ARV","MSF","US FDA","Family Health International","FDA","US Food"],"places":[{"name":"Latin          US","latitude":42.27565,"longitude":-71.15755,"place_type":"School"},{"name":"America","latitude":39.76,"longitude":-98.5,"place_type":"Country"},{"name":"US","latitude":39.76,"longitude":-98.5,"place_type":"Country"},{"name":"NairobI","latitude":-1.28333,"longitude":36.81667,"place_type":"City"},{"name":"Kenya","latitude":1.0,"longitude":38.0,"place_type":"Country"},{"name":"The US","latitude":40.71427,"longitude":-74.00597,"place_type":"City"},{"name":"Geneva","latitude":46.16667,"longitude":6.16667,"place_type":"Adm"},{"name":"Africa","latitude":-30.0,"longitude":26.0,"place_type":"Country"},{"name":"Asia","latitude":9.56667,"longitude":122.6,"place_type":"Adm"},{"name":"Eastern Europe","latitude":51.72703,"longitude":28.38867,"place_type":"GisFeature"}]}