{"people":["Crispus M. Kiamba","Lena","Mwai Kibaki","Dominic Makawiti","Mr Gituku","Paediat","Jacob Midiwo"],"organizations":["School of Computing","Crispus                             The University","Department of Food Sci","Faculty of Educa","Heath Sciences","University of Nairobi's Department of Medical","MVA","Gandhi Smarak","Show Committee","University","The University","Department of Medical Microbi","Law                                                              Science Workshop","Research Council","Institute for African Studies","Guest of Honour","Nairobi Interna","Medical Microbiology","University of Oxford","University ICT","Kiamba          University Scoops Prizes Rewarding Academic Excellence                                                                                                                           The University of Nairobi","Faculties of Agriculture","Department of Crop Science","Child Health and Community Health","University of Nairobi","The Science Workshop"],"places":[{"name":"Nairobi","latitude":-1.28333,"longitude":36.81667,"place_type":"City"},{"name":"Kenya","latitude":1.0,"longitude":38.0,"place_type":"Country"},{"name":"Taifa","latitude":34.35557,"longitude":-4.07819,"place_type":"Adm"},{"name":"Gambia","latitude":13.5,"longitude":-15.5,"place_type":"Country"},{"name":"Septem","latitude":35.89028,"longitude":-5.3075,"place_type":"Adm"},{"name":"Uganda","latitude":2.0,"longitude":33.0,"place_type":"Country"},{"name":"South Africa","latitude":-30.0,"longitude":26.0,"place_type":"Country"},{"name":"Machakos","latitude":-1.51667,"longitude":37.26667,"place_type":"City"},{"name":"Switzerland","latitude":47.00016,"longitude":8.01427,"place_type":"Country"},{"name":"Rwanda","latitude":-2.0,"longitude":30.0,"place_type":"Country"}]}