{"people":["Robyn Dixon","Luthando","Ashraf Coovadia","Thabo Mbeki","Mogano","Flora Mogano","Faniswa Butshing","Craig Timberg/Francine   Orr"],"organizations":["Mogana","Chris Hani Baragwanath Hospital","Los        Angeles Times"],"places":[{"name":"Gauteng","latitude":-26.08333,"longitude":28.25,"place_type":"Adm"},{"name":"Vosloorus","latitude":-26.35745,"longitude":28.20756,"place_type":"City"},{"name":"South Africa                                                                                                                              Mogano","latitude":-24.05191,"longitude":29.74694,"place_type":"City"},{"name":"Mogano","latitude":-24.05191,"longitude":29.74694,"place_type":"City"},{"name":"Soweto","latitude":-26.26781,"longitude":27.85849,"place_type":"City"},{"name":"South Africa","latitude":-30.0,"longitude":26.0,"place_type":"Country"},{"name":"Tembisa","latitude":-25.99636,"longitude":28.2268,"place_type":"City"},{"name":"Johannesburg","latitude":-26.20227,"longitude":28.04363,"place_type":"City"},{"name":"SOUTH AFRICA","latitude":-30.0,"longitude":26.0,"place_type":"Country"}]}