{"people":["Andrew Natsios","Mr Sheik","Suda","Gomer","Kristina Orth","Mr NatslOs","Mr Annan","Mr Nat","Natsios","Nayef","Whitfield","Mr Whitfield","Annan","Mr Natsios","Anthony E. Whitfield"],"organizations":["Fiat","Department of Nursing Sciences","Agency for International Develop","Reuters","Janjaweed","Professional Certificate in Health","Henry Green","United","High Court","Venue                 Department of Nursing Sciences","Justice George Mann"],"places":[{"name":"Nairobi","latitude":-1.28333,"longitude":36.81667,"place_type":"City"},{"name":"US","latitude":39.76,"longitude":-98.5,"place_type":"Country"},{"name":"Saudi Arabia","latitude":25.0,"longitude":45.0,"place_type":"Country"},{"name":"Washington","latitude":47.50012,"longitude":-120.50147,"place_type":"Adm"},{"name":"P.O.","latitude":39.66472,"longitude":106.81222,"place_type":"City"},{"name":"Darfur","latitude":11.15,"longitude":25.25,"place_type":"Adm"},{"name":"Berlin","latitude":52.5233,"longitude":13.41377,"place_type":"Adm"},{"name":"Gulf","latitude":24.0,"longitude":54.0,"place_type":"Country"},{"name":"Sudan","latitude":16.0,"longitude":30.0,"place_type":"Country"},{"name":"London","latitude":51.50853,"longitude":-0.12574,"place_type":"City"},{"name":"Guyana","latitude":5.0,"longitude":-59.0,"place_type":"Country"},{"name":"Riyadh","latitude":23.33333,"longitude":45.33333,"place_type":"Adm"},{"name":"RIYADH","latitude":23.33333,"longitude":45.33333,"place_type":"Adm"},{"name":"Lincoln","latitude":53.16667,"longitude":-0.25,"place_type":"Adm"},{"name":"LONDON","latitude":51.50853,"longitude":-0.12574,"place_type":"City"}]}