{"people":["Ngilu","Judge C. B. Madan","Bush","Kibaki","Milton Odhiambo","Carl Stubner","Sean Christie","Moore","Ndung","Michael                     Erick Otieno","Mwali Mutisya","W. Bush","Nunguni"],"organizations":["USA","NGOs","Government","Health Insurance Fund","Mrs      Museveni","Narc Government","KRA","National Social","UNAids","National Social Security Fund","Chief Justice","US President George","Moore's","Circuite & Jo-e1","United Kingdom"],"places":[{"name":"Nairobi","latitude":-1.28333,"longitude":36.81667,"place_type":"City"},{"name":"Nakuru","latitude":-0.28333,"longitude":36.06667,"place_type":"City"},{"name":"Uganda","latitude":2.0,"longitude":33.0,"place_type":"Country"},{"name":"Boston","latitude":42.35347,"longitude":-71.06094,"place_type":"GisFeature"},{"name":"Thika","latitude":-1.03326,"longitude":37.06933,"place_type":"City"},{"name":"Bellagio","latitude":45.98745,"longitude":9.26199,"place_type":"Adm"},{"name":"Kenya","latitude":1.0,"longitude":38.0,"place_type":"Country"},{"name":"Massachusetts","latitude":42.36565,"longitude":-71.10832,"place_type":"Adm"},{"name":"Â· Kenya","latitude":1.0,"longitude":38.0,"place_type":"Country"},{"name":"Nyanza Province","latitude":-0.5,"longitude":34.5,"place_type":"Adm"},{"name":"South Africa","latitude":-30.0,"longitude":26.0,"place_type":"Country"},{"name":"Zimbabwe","latitude":-19.0,"longitude":29.0,"place_type":"Country"}]}