{"people":["GEOFFREY OLALI","Linet Anyango","Mr John        Mr Ojaamong","Mr Ojaamong","Mrs Ojaaffiong","Mr Achieng","Mr Njanja","SIMBI KUSIMBA","Juliana","Mr Justice","Robert Mutitu","John Maina Mukiri","Judge Joseph Sergon","David Mithamu Nderitu","Lucy Kibaki"],"organizations":["Development House","Westlands","State","Njoroge Njagi","Kalpana Rawal","World Vision Kenya","NA nON Reporter","Moi Avenue & Klmathi Street Branch                                                                                                                                                                                                                                  Baba Dogo Road","Lady Justice Rawal","Contact Moons Education","Summer Estate","Mrs Ojaamong","High Court","University"],"places":[{"name":"Nairobi","latitude":-1.28333,"longitude":36.81667,"place_type":"City"},{"name":"Narok District","latitude":-1.25,"longitude":35.75,"place_type":"GisFeature"},{"name":"Nakuru","latitude":-0.28333,"longitude":36.06667,"place_type":"City"},{"name":"Africa","latitude":-30.0,"longitude":26.0,"place_type":"Country"},{"name":"Kampala","latitude":0.31628,"longitude":32.58219,"place_type":"City"},{"name":"NYERI","latitude":-0.42013,"longitude":36.94759,"place_type":"City"}]}