{"people":["Ghadamojj","Steven Munga","Knapp","Ken","Babie Lewandowski","Dugan","Ghai","Yahya Hassan Mohamed","Chris","William Karanja","Hussein Zagalot","Mr Raila Odin","B. K. Makulae","Joseph Ndiithi","Owino Owuor Gabriel                                    Lillian","Kanu","Daniel Dugan","Miss Lewandowski","William Knapp"],"organizations":["Falvey","Daily Nation","Shl","Sunday Nation","National Aids Control Council","Bomas Draft","Nation TM","Chripine Martin Onyango","Commission","Government","Navy","National Alliance","VCTs"],"places":[{"name":"Nairobi","latitude":-1.28333,"longitude":36.81667,"place_type":"City"},{"name":"US","latitude":39.76,"longitude":-98.5,"place_type":"Country"},{"name":"Johan","latitude":45.18333,"longitude":21.08333,"place_type":"City"},{"name":"P.O.","latitude":39.66472,"longitude":106.81222,"place_type":"City"},{"name":"Milwaukee","latitude":43.00057,"longitude":-87.96675,"place_type":"Adm"},{"name":"Sri Lanka","latitude":7.0,"longitude":81.0,"place_type":"Country"},{"name":"Thika","latitude":-1.03326,"longitude":37.06933,"place_type":"City"},{"name":"Kenya","latitude":1.0,"longitude":38.0,"place_type":"Country"},{"name":"Fiji","latitude":-18.0,"longitude":178.0,"place_type":"Country"},{"name":"Africa","latitude":-30.0,"longitude":26.0,"place_type":"Country"},{"name":"Marsabit","latitude":2.32839,"longitude":37.98986,"place_type":"City"}]}