{"people":["George Munene Rutto","Loise Gikuhi","Mr Awori","Mr Wambugu","Wanjiru","Mr John Wanyonyi","Mr Githaiga","James Gesami","Ogolla","Makutano","Likii","Marcus Ocholla","Joshua Wambugu","Githaiga","Mr Farah","J.M. Malinda","Awori","Carolyne Okaka","James Kariuki","Wallace Gachanja","Charles John Michuki"],"organizations":["Council","Betting Control Board","Luvisia Anthony","Moody Awori                Sources","National      Development","Ngurubani Town","High Court","University","Nzoia District","Munara Primary School","Nyando District Commissioner Hassan","Kirinyaga District","Government","Migori District","Narc Government","Nation","Michuki                               Prisoners","Transport","Kitany Secondary School                    Some","Nyahururu Industrial Prison","Kerugoya               Police              Station","Maseno University"],"places":[{"name":"Kitale","latitude":1.01572,"longitude":35.00622,"place_type":"City"},{"name":"Kiharu","latitude":-0.71667,"longitude":37.15,"place_type":"Building"},{"name":"Nyandarua","latitude":-0.63333,"longitude":36.7,"place_type":"GisFeature"},{"name":"Malaya","latitude":2.5,"longitude":112.5,"place_type":"Country"},{"name":"Kisii","latitude":-0.68174,"longitude":34.76666,"place_type":"City"},{"name":"KISII","latitude":-0.68174,"longitude":34.76666,"place_type":"City"},{"name":"Kapenguria","latitude":1.21667,"longitude":35.11667,"place_type":"Stream"},{"name":"Muhoroni","latitude":-0.15406,"longitude":35.19878,"place_type":"City"},{"name":"Kisumu","latitude":-0.10221,"longitude":34.76171,"place_type":"City"},{"name":"LAIKIPIA","latitude":0.41667,"longitude":36.75,"place_type":"Adm"},{"name":"Nyanza","latitude":-0.5,"longitude":34.5,"place_type":"Adm"},{"name":"NAKURU","latitude":-0.28333,"longitude":36.06667,"place_type":"City"}]}