{"people":["Robert Mugabe","Mr Mbeki","Mr Zuma","Morris Anyah","Thabo Mbeki","Mr Taylor","Mr John","Scott Gration","Mr Jacob","Charles Taylor","Mr Jacob Zuma"],"organizations":["African National Congress","Relations Committee","South          Supporters of                                                                                                      Aide Medicale Internationale","Congress","Special Court for Sierra Leone","Reuters","US Senate","Niger Delta","National Prosecuting Authority","Nation","ANC","Sierra Leone","Adamac Industries Ltd","NPA"],"places":[{"name":"Hague","latitude":52.07667,"longitude":4.29861,"place_type":"City"},{"name":"US","latitude":39.76,"longitude":-98.5,"place_type":"Country"},{"name":"Nigeria","latitude":10.0,"longitude":8.0,"place_type":"Country"},{"name":"Khartoum","latitude":15.55177,"longitude":32.53241,"place_type":"City"},{"name":"Port Harcourt","latitude":4.77742,"longitude":7.0134,"place_type":"City"},{"name":"Darfur","latitude":11.15,"longitude":25.25,"place_type":"Adm"},{"name":"Kerry","latitude":52.16667,"longitude":-9.75,"place_type":"Adm"},{"name":"KHARTOUM","latitude":15.55177,"longitude":32.53241,"place_type":"City"},{"name":"Sudan","latitude":16.0,"longitude":30.0,"place_type":"Country"},{"name":"ITALY                                                                                                                                                           Italy","latitude":42.83333,"longitude":12.83333,"place_type":"Country"},{"name":"France","latitude":46.0,"longitude":2.0,"place_type":"Country"},{"name":"LAGOS","latitude":6.58333,"longitude":3.75,"place_type":"Adm"},{"name":"Africa","latitude":-30.0,"longitude":26.0,"place_type":"Country"},{"name":"South Africa","latitude":-30.0,"longitude":26.0,"place_type":"Country"},{"name":"Pretoria","latitude":-26.08333,"longitude":28.25,"place_type":"Adm"},{"name":"JOHANNESBURG","latitude":-26.20227,"longitude":28.04363,"place_type":"City"},{"name":"Zimbabwe","latitude":-19.0,"longitude":29.0,"place_type":"Country"}]}