{"people":["Yusuf K. Dawood                                                   Next","Catherine               Hemlin","Girma","Sheila A. Lukehart","Helmut Drexler","Nkrumah","Kifle","Nasser"],"organizations":["Reuters Health","Central and              Southern Africa","East              African Surgeons' Association","Rotary Conference","Kifle","Sheba","Harborview Medical","State","Marie","Hilton","United Nations","Peace Corps","OAU","College of Surgeons of East","Nyerere"],"places":[{"name":"Nairobi","latitude":-1.28333,"longitude":36.81667,"place_type":"City"},{"name":"US","latitude":39.76,"longitude":-98.5,"place_type":"Country"},{"name":"Washington","latitude":47.50012,"longitude":-120.50147,"place_type":"Adm"},{"name":"Hannover","latitude":52.44889,"longitude":9.74,"place_type":"Adm"},{"name":"Uganda","latitude":2.0,"longitude":33.0,"place_type":"Country"},{"name":"Addis Ababa","latitude":9.02497,"longitude":38.74689,"place_type":"City"},{"name":"India","latitude":20.0,"longitude":77.0,"place_type":"Country"},{"name":"Madras","latitude":11.0,"longitude":78.0,"place_type":"Adm"},{"name":"Ethiopia","latitude":8.0,"longitude":38.0,"place_type":"Country"},{"name":"Kenya","latitude":1.0,"longitude":38.0,"place_type":"Country"},{"name":"Seattle","latitude":47.60014,"longitude":-122.3283,"place_type":"GisFeature"},{"name":"Bangkok","latitude":13.75,"longitude":100.51667,"place_type":"City"},{"name":"Addis","latitude":9.02497,"longitude":38.74689,"place_type":"City"},{"name":"Africa","latitude":-30.0,"longitude":26.0,"place_type":"Country"},{"name":"Eritrea","latitude":15.0,"longitude":39.0,"place_type":"Country"},{"name":"Germany","latitude":51.5,"longitude":10.5,"place_type":"Country"},{"name":"Africa Hall","latitude":-33.15,"longitude":24.7,"place_type":"Farm"},{"name":"Middle East","latitude":41.06665,"longitude":-104.65996,"place_type":"GisFeature"}]}