{"people":["Ken","Mzee Kimani","Atif Fazil","Nzuki Kitenge","Mzee Maruge","Mr Blair","Mr Mwakwere","Ali Taib","Taib                                                                   Mr Mwakwere","PATRICK MA YOYO","Mr Saleh Ali Mirza","Mr Munir Mohammed","Hilary Benn"],"organizations":["Daily Nation","Mayor Taib Ali Taib","UK","Gulf","Supreme Council","Iraq","Mombasa","Electoral Commission","International   Development               Mr Blair","Government","Iraqi    The Metro Mombasa Bus Service","The Associated Press","NATION Correspondents                      Kuwait","Moktar Daddah St.","NATION                     Tony Blair","NATION Correspondent"],"places":[{"name":"Britain","latitude":54.0,"longitude":-4.0,"place_type":"Country"},{"name":"Nairobi","latitude":-1.28333,"longitude":36.81667,"place_type":"City"},{"name":"Changamwe","latitude":-4.01659,"longitude":39.62893,"place_type":"City"},{"name":"Kitui","latitude":-1.36696,"longitude":38.01056,"place_type":"City"},{"name":"Eldoret","latitude":0.52036,"longitude":35.26992,"place_type":"City"},{"name":"Kuwait","latitude":29.5,"longitude":47.75,"place_type":"Country"},{"name":"Iraq","latitude":33.0,"longitude":44.0,"place_type":"Country"},{"name":"KASARANI","latitude":-1.10972,"longitude":37.07692,"place_type":"CitySubdivision"}]}