{"people":["JOHN Macharia Mukuna","Studi","Mary","Gachoki Mwangi","Maryann","Mwangi","Edward A. N. Muhin","LAVINGTON","Peter M.      12000","Mr.                      SOFTA","Tom Siropp"],"organizations":["Ksh","Council","Embakasi Njiru        Masimba                    Enterprise Road","RedroseStationery &CopyCentre","Muthurwa Estate","Maina Ndegwa","UPS","Nairobi City Council","Kayole Phase III                                                      Yaya Centre","Kinky Hotel service & pri","Joseph Ndunde                                                                             nk Estate","Health Club","Services","Compaq","Colour Scanners","Kariobangi South         CountyCounciVADC House","Nairobi Block      Juja Road Estate","TOSHIBA","Toshiba","Ngara Railway","Lai Xiang","Nairobi              Alrikanet Clinic","Gilfillan Hse","KERICHO                                                                                                                                                        Nairobi Block      Fedha Estate","Intel","St. Claire","Valette Hair Design &","Nairobi   NationCentre","Stanley Hotel Ground","Flowers                                         Nairobi Block                                                                                                                                                                 110/731            Windsor View                                                                                                                                                                                    Estate                            Veg","Nbi","Nakumatt","NGONG Jingles&General","Woodley Estate","Name                                                                Power Generators","FDD   Nkrumah  Road","Uthiru Police Station","St. Claire C.C.S.   Weekendall"],"places":[{"name":"Nairobi","latitude":-1.28333,"longitude":36.81667,"place_type":"City"},{"name":"KAKAMEGA","latitude":0.28422,"longitude":34.75228,"place_type":"City"},{"name":"KENYA","latitude":1.0,"longitude":38.0,"place_type":"Country"},{"name":"Westlands","latitude":18.27328,"longitude":-78.36502,"place_type":"City"},{"name":"Siaya","latitude":0.06116,"longitude":34.28823,"place_type":"City"},{"name":"ASMARA","latitude":15.33333,"longitude":38.93333,"place_type":"City"},{"name":"NAKURU","latitude":-0.28333,"longitude":36.06667,"place_type":"City"},{"name":"NGARA","latitude":-7.68386,"longitude":112.25804,"place_type":"City"},{"name":"EMBU","latitude":-23.64664,"longitude":-46.85386,"place_type":"Adm"},{"name":"Eldoret","latitude":0.52036,"longitude":35.26992,"place_type":"City"},{"name":"Japan","latitude":35.68536,"longitude":139.7531,"place_type":"Country"}]}