{"people":["Oprah","Onyango-Obbo","Ken"],"organizations":["Poisons Board","Labour Minister Newton Kulundu","Daily Nation","Nation Centre","Treasury","Nairobi     Women","EU","Newcastle","European Commission","Nation Media Group Limited","Directorate    of Industrial                       Training","The Guardi","Government","Nation Media Group","Media Group aad Cootnbutcrs                         United and Manchester City","Oprah Winfrey"],"places":[{"name":"Britain","latitude":54.0,"longitude":-4.0,"place_type":"Country"},{"name":"Nairobi","latitude":-1.28333,"longitude":36.81667,"place_type":"City"},{"name":"US","latitude":39.76,"longitude":-98.5,"place_type":"Country"},{"name":"America","latitude":39.76,"longitude":-98.5,"place_type":"Country"},{"name":"Washington","latitude":47.50012,"longitude":-120.50147,"place_type":"Adm"},{"name":"Mediterranean","latitude":41.0737,"longitude":1.15032,"place_type":"Hotel"},{"name":"Spain","latitude":40.0,"longitude":-4.0,"place_type":"Country"},{"name":"West","latitude":30.86017,"longitude":72.31976,"place_type":"Adm"},{"name":"Momba","latitude":-30.96667,"longitude":143.48334,"place_type":"Farm"},{"name":"Europe","latitude":43.5333,"longitude":3.9833,"place_type":"Hotel"},{"name":"Israel","latitude":31.5,"longitude":34.75,"place_type":"Country"}]}