{"organizations":["Fleet Agreements and Regulatory","Civil Aviation Authorities                        Tel","Aeronautical                 Science","Human Resource Base","Jomo Kenyatta             International     Airport","ATC Certificate","IIA                                                        Experience","Aircraft Performance","University","Personal                  University","Excellent Financial","Kenya Airways","Air Navigation Regulations","Contact             Professional Practice of Intemal Auditing","Oracle","Commerce","Curriculum Vitae","Company","Company  Interviews","Head of Intemal Audit Corporate Risk Assessment                                      Licensed Dispatcher","University Graduate                                                                                    TfJe Role                                                                                                 Recognized Airline Operations Certificate","KLM","Central Africa","Human Resources Manager","Zuzuka Ltd.","Boeing","First Officer","Kenya      Airways","2004                                                       Kenya Airways","The Group       Director","Reliability                                                                                           Consistent","BOEING","Aeronautical      Information Service","HIV/AIDS Epidemiology Branch","Filing Air Traffic Control"],"places":[{"name":"Abidjan","latitude":5.30943,"longitude":-4.01972,"place_type":"City"},{"name":"Mumbai","latitude":19.01441,"longitude":72.84794,"place_type":"City"},{"name":"Hong Kong","latitude":22.28552,"longitude":114.15769,"place_type":"City"},{"name":"Far East","latitude":-25.64029,"longitude":31.53805,"place_type":"Farm"},{"name":"P.O.","latitude":39.66472,"longitude":106.81222,"place_type":"City"},{"name":"West","latitude":30.86017,"longitude":72.31976,"place_type":"Adm"},{"name":"Cape Town","latitude":-33.92584,"longitude":18.42322,"place_type":"City"},{"name":"East","latitude":-5.0,"longitude":120.0,"place_type":"Country"},{"name":"Nakuru","latitude":-0.28333,"longitude":36.06667,"place_type":"City"},{"name":"Dubai","latitude":25.0,"longitude":55.33333,"place_type":"Adm"},{"name":"Amsterdam","latitude":52.36667,"longitude":4.88333,"place_type":"Adm"},{"name":"London","latitude":51.50853,"longitude":-0.12574,"place_type":"City"},{"name":"Kitale","latitude":1.01572,"longitude":35.00622,"place_type":"City"},{"name":"Kenya","latitude":1.0,"longitude":38.0,"place_type":"Country"},{"name":"Kakamega","latitude":0.28422,"longitude":34.75228,"place_type":"City"},{"name":"Nairobi","latitude":-1.28333,"longitude":36.81667,"place_type":"City"},{"name":"Lagos","latitude":6.58333,"longitude":3.75,"place_type":"Adm"},{"name":"Accra","latitude":5.75,"longitude":0.0,"place_type":"Adm"},{"name":"KISUMU","latitude":-0.10221,"longitude":34.76171,"place_type":"City"},{"name":"Uganda","latitude":2.0,"longitude":33.0,"place_type":"Country"},{"name":"Nyeri","latitude":-0.42013,"longitude":36.94759,"place_type":"City"},{"name":"Mombasa","latitude":-4.05466,"longitude":39.66359,"place_type":"City"},{"name":"Johannesburg","latitude":-26.20227,"longitude":28.04363,"place_type":"City"},{"name":"Bangkok","latitude":13.75,"longitude":100.51667,"place_type":"City"},{"name":"Eldoret","latitude":0.52036,"longitude":35.26992,"place_type":"City"},{"name":"Africa","latitude":-30.0,"longitude":26.0,"place_type":"Country"},{"name":"Kisumu","latitude":-0.10221,"longitude":34.76171,"place_type":"City"},{"name":"Machakos","latitude":-1.51667,"longitude":37.26667,"place_type":"City"}]}