{"people":["Peter Omwando","Dan Kimei","Hosborn MacKenzie","Ben Amimo","Mariano Barreto","Esakwa","Jacob Mulee","Kadenge","Ken Vitisia","Hussein Keya","Michael Esakwa","Benard Makuto","Kenyatta","Nicolas Liseche","Aketch","Ramadhan Balala","Sophie Schneid","Balala","Mahia","Albert Aketch","HEZEKIAH WEPUKHULU","Kariuki","Richard Kwemba","Mohamed Fwaya","Joe Kadenge","Ferdi","Mike Esakwa","Joseph Matun"],"organizations":["Haben Trust Sports Against Drugs","Football Association","Mater Hospital","Maina Kariuki","Mwihila Secondary School","Cherne Iii","Masaba Hospital","Joseph           Commercial Bank","Securicor","Danson Dali","Mbale Rangers","Thika United","Administration Police","Moi Interna","Utalii","GSU","Coast Stars","League","Burkina Faso","Sony Sugar","Federation","Kangemi United","Cecafa","Kegoye Secondary School","Nations","Cup of Nations","Ulinzi Stars","Mulee","KFF","Jadini Beach Hotel","Telkom            Atenya","United","Eburu","World Cup/Africa Nations","Anthony Mukabwa Memorial","Koech Stanley"],"places":[{"name":"Kasarani","latitude":-1.10972,"longitude":37.07692,"place_type":"CitySubdivision"},{"name":"Shinyalu","latitude":0.23333,"longitude":34.81667,"place_type":"GisFeature"},{"name":"Kenya","latitude":1.0,"longitude":38.0,"place_type":"Country"},{"name":"Shabana","latitude":-1.395,"longitude":30.1795,"place_type":"City"},{"name":"Diani","latitude":7.56667,"longitude":-4.08333,"place_type":"City"},{"name":"Nzoia","latitude":0.45337,"longitude":34.61038,"place_type":"GisFeature"},{"name":"Malawi","latitude":-13.5,"longitude":34.0,"place_type":"Country"},{"name":"Tunisia","latitude":34.0,"longitude":9.0,"place_type":"Country"},{"name":"South Coast","latitude":-33.42,"longitude":151.396,"place_type":"GisFeature"},{"name":"Nairobi","latitude":-1.28333,"longitude":36.81667,"place_type":"City"},{"name":"Kakamega","latitude":0.28422,"longitude":34.75228,"place_type":"City"},{"name":"Ghana","latitude":8.0,"longitude":-2.0,"place_type":"Country"},{"name":"Cape","latitude":-32.0,"longitude":26.0,"place_type":"Adm"},{"name":"Burkina Faso","latitude":13.0,"longitude":-2.0,"place_type":"Country"},{"name":"Bizerte","latitude":37.27442,"longitude":9.87391,"place_type":"City"},{"name":"Mathare","latitude":-1.28333,"longitude":34.81667,"place_type":"School"},{"name":"Uganda","latitude":2.0,"longitude":33.0,"place_type":"Country"},{"name":"Gaborone","latitude":-24.65451,"longitude":25.90859,"place_type":"City"},{"name":"Mombasa","latitude":-4.05466,"longitude":39.66359,"place_type":"City"},{"name":"Western Kenya","latitude":0.5,"longitude":34.58333,"place_type":"Adm"},{"name":"Kumasi","latitude":6.68848,"longitude":-1.62443,"place_type":"City"},{"name":"Vihiga","latitude":0.53455,"longitude":34.79109,"place_type":"School"},{"name":"Botswana","latitude":-22.0,"longitude":24.0,"place_type":"Country"},{"name":"Africa","latitude":-30.0,"longitude":26.0,"place_type":"Country"},{"name":"Portu","latitude":-8.76194,"longitude":-63.90389,"place_type":"City"}]}