{"people":["Lance S. Weinhardt","Kathrine Colin","Ian Mwaura","Sammy Kari","Njoki","WANJA NJUGUNA","Kay L. Cox","Lina Njoroge","Ann Njoki Mwaura"],"organizations":["HDL","Reuters","Moody Awori","Association of People","Reuter","Cow & Gate","LDL","PhotolWanja   Njuguna \\","Commission","University of Western Australia","Harvard University Human Rights Fel","Njoki","Employment Rights of People","Rift Valley General Hospital","Jakob Dupont","Network of People Living"],"places":[{"name":"Britain","latitude":54.0,"longitude":-4.0,"place_type":"Country"},{"name":"US","latitude":39.76,"longitude":-98.5,"place_type":"Country"},{"name":"New York","latitude":43.00035,"longitude":-75.4999,"place_type":"Adm"},{"name":"Kenya","latitude":1.0,"longitude":38.0,"place_type":"Country"},{"name":"Njoki","latitude":64.4,"longitude":27.85,"place_type":"Stream"},{"name":"Nakuru","latitude":-0.28333,"longitude":36.06667,"place_type":"City"},{"name":"Milwaukee","latitude":43.00057,"longitude":-87.96675,"place_type":"Adm"},{"name":"Wisconsin","latitude":44.50024,"longitude":-90.00041,"place_type":"Adm"}]}