{"people":["Monda","Leah Muthoni","Aggrey Mudtnyu","Githaiga","David Elkins","John Ruganda","Z. Burhani","Mayai Waziri","James Gesame","Kifo Kisimani","Ken Lusaka                    Mutomo","Enos Oyaya","Velma Pollard","Macmillan","Marjorie Oludhe-MacGoye"],"organizations":["MacDonagh","Head Office","Co-oparatlve Bank House","NatIOnal Examinations Council","Elkins","TRADE CORP","Futures Group Europe","House Ground Floor","Mbena","Aluminium & Glass Displays","Nairobi                                          DESIGNS & DISPLAYS LTD","Shreds of Tender","4th & 5th Floor","Kenya-Tanzania","Government","Futures Group","DORMEUIL","Brt","House","Ngong Road","William Shakespeare","Oxford University Press","• Trousers & • Ladies Suits                                                                                                                                                                                                                                           Wholesale"],"places":[{"name":"France","latitude":46.0,"longitude":2.0,"place_type":"Country"},{"name":"Nairobi","latitude":-1.28333,"longitude":36.81667,"place_type":"City"},{"name":"Kenya","latitude":1.0,"longitude":38.0,"place_type":"Country"},{"name":"Makueni","latitude":-1.80409,"longitude":37.62034,"place_type":"City"},{"name":"Kajiado","latitude":-1.85238,"longitude":36.77683,"place_type":"City"},{"name":"Siaya","latitude":0.06116,"longitude":34.28823,"place_type":"City"},{"name":"Kisumu","latitude":-0.10221,"longitude":34.76171,"place_type":"City"},{"name":"Kibaoni","latitude":-3.71667,"longitude":39.83333,"place_type":"City"},{"name":"Nyanza","latitude":-0.5,"longitude":34.5,"place_type":"Adm"},{"name":"Oloitokitok","latitude":-1.78333,"longitude":35.9,"place_type":"Stream"},{"name":"Italy","latitude":42.83333,"longitude":12.83333,"place_type":"Country"},{"name":"Thika","latitude":-1.03326,"longitude":37.06933,"place_type":"City"},{"name":"Lusaka","latitude":-15.40669,"longitude":28.28713,"place_type":"City"}]}