{"people":["Maitha","Samson Muriuki","Aldai Kanu","Lucas Maitha","Benedict Kilonzo Mwenga","Njogu","Raphael Muriungi","Kibaki","Njoroge Mbugua","Muriuki","Alfred Nderitu","Catford","Mr Kariuki","Sammy Nyalo","Peter Munya","Mr Ander","Kangundo","Daniel Karaba              Najib Balala","David Mwenje","Masinga","Mr Maitha","William Kabogo","Mr Mbau","Mr Mukiri","Molo          Karue","Murathimi","Theuri","DANIEL KAMAU","GEORGE MUNENE","Elias Mbau","Mr Najib Balala","Mr John Kiige","Elius Mbau","Mr Theuri","Patrick Ngerechi","Kiheri","Mr Ben Kiala","Ndung","Jim Choge","Martha Karua","Silas Muzungu","Muchiri Mukiri"],"organizations":["Nakuru Town MP Mirugi Kariuki","Nithi","Mof","Parliament","Eastern","Consolata Odongo","Rurago Church","Ministry of Environment and Natural","Muriuki","Kirinyaga District","Narc Government","Kenya National Chamber","Spm","Kiala Foundation","Catholic Church","LDP","NGO","Residents of Uaso-Narok Settlement Scheme","Mwea Constitu","Government","National Herit","Raila Odinga","Commerce and Industry","Colonial Government                             Speaking","Ngurubani                                                      Government","Kalonzo Musyoka","AIC"],"places":[{"name":"Elburgon","latitude":-0.30392,"longitude":35.81144,"place_type":"City"},{"name":"Nyeri","latitude":-0.42013,"longitude":36.94759,"place_type":"City"},{"name":"NYERI","latitude":-0.42013,"longitude":36.94759,"place_type":"City"},{"name":"NAKURU","latitude":-0.28333,"longitude":36.06667,"place_type":"City"},{"name":"Mwingi","latitude":-0.93435,"longitude":38.06005,"place_type":"City"},{"name":"Kisauni","latitude":-6.21667,"longitude":39.23333,"place_type":"City"},{"name":"Kirinyaga","latitude":-0.45746,"longitude":37.37474,"place_type":"Adm"},{"name":"Mwenga","latitude":-3.03861,"longitude":28.4325,"place_type":"City"},{"name":"Malindi","latitude":-3.21748,"longitude":40.1191,"place_type":"City"},{"name":"Kerugoya","latitude":-0.49886,"longitude":37.28031,"place_type":"City"}]}