{"people":["John Muritu","ELISHA OTIENO","Kimathi","Mr Muritu","Mary","Gilbert Deya","Mr Muni","Otieno B1ackie","TOM MATOKE","Kipkemboi","Edwin Kipkemboi","William Bellamy","Japheth Serem","Mr Kyeni Musyoka","Mrs Sophie Machoka","John Okello","Kimutai","James Kihungi","Deya","Mr Musyoka","Nyarami                    Nyarami","Mr Lazarus Mulinge","George Wafula","Myriam Nyeko","Mrs Mary Aoko"],"organizations":["Trans Mara","Kaptie Village","Sammy Kuria","Association of Kenya","High Court","Masters of Education","Government","Kabete Children","Kariuki Muni","Nandi North District","Catholic University               of Eastern Africa","Nation","Kapsabet           Kipkemboi"],"places":[{"name":"Migori","latitude":-1.06344,"longitude":34.47313,"place_type":"City"},{"name":"Nairobi","latitude":-1.28333,"longitude":36.81667,"place_type":"City"},{"name":"US","latitude":39.76,"longitude":-98.5,"place_type":"Country"},{"name":"Kenya","latitude":1.0,"longitude":38.0,"place_type":"Country"},{"name":"Nakuru","latitude":-0.28333,"longitude":36.06667,"place_type":"City"},{"name":"Nyahururu","latitude":0.0421,"longitude":36.36734,"place_type":"City"},{"name":"Nyeri","latitude":-0.42013,"longitude":36.94759,"place_type":"City"},{"name":"Karungu","latitude":-2.17986,"longitude":37.64013,"place_type":"Stream"}]}