{"people":["Ahern","Mr Shaath","Mr Arafat","Mozam","Mike Sackett","Nabil Shaath","Yasser Arafat","Dermot Ahern","Mr Sackett","Margaret","Kenneth Bigley","Sackett"],"organizations":["Daily Nation","Diplomain Transport Management","Business Administration","Meteorological Agency","Diplomain Electronics Engineering","Diploma                               International Airport","Reuters","Automotive Engineering","Applied Statistics","Coast Guard","National Institute for Sea","Ambalal House","Uchumi House","KSh","United Nations","Thursday                                           Union","WFP","Kabete Technical Training Institute","Kaio Maru","KABETE TECHNICAL TRAINING INSTITUTE Training","Shikoku","Jomo Kenyatta International        Airport                           UKIA"],"places":[{"name":"P.O.","latitude":39.66472,"longitude":106.81222,"place_type":"City"},{"name":"Okayama","latitude":34.66167,"longitude":133.935,"place_type":"City"},{"name":"Ireland","latitude":54.0,"longitude":-4.0,"place_type":"Country"},{"name":"Kochi","latitude":9.93988,"longitude":76.26022,"place_type":"City"},{"name":"Toyama","latitude":36.69528,"longitude":137.2114,"place_type":"City"},{"name":"South","latitude":-30.0,"longitude":26.0,"place_type":"Country"},{"name":"Baghdad","latitude":33.34058,"longitude":44.40088,"place_type":"City"},{"name":"Iraq","latitude":33.0,"longitude":44.0,"place_type":"Country"},{"name":"Lesotho","latitude":-29.5,"longitude":28.25,"place_type":"Country"},{"name":"TOKYO","latitude":35.6895,"longitude":139.69171,"place_type":"Adm"},{"name":"NAIROBI","latitude":-1.28333,"longitude":36.81667,"place_type":"City"},{"name":"Takaoka","latitude":36.75,"longitude":137.01666,"place_type":"City"},{"name":"Pacific","latitude":46.56649,"longitude":-123.71794,"place_type":"Adm"},{"name":"Malawi","latitude":-13.5,"longitude":34.0,"place_type":"Country"},{"name":"BRUSSELS","latitude":50.85045,"longitude":4.34878,"place_type":"City"},{"name":"DUBLIN","latitude":53.38046,"longitude":-6.27113,"place_type":"GisFeature"},{"name":"Nairobi","latitude":-1.28333,"longitude":36.81667,"place_type":"City"},{"name":"Tokyo","latitude":35.6895,"longitude":139.69171,"place_type":"Adm"},{"name":"Mombasa","latitude":-4.05466,"longitude":39.66359,"place_type":"City"},{"name":"Zambia","latitude":-15.0,"longitude":30.0,"place_type":"Country"},{"name":"Swaziland","latitude":-26.5,"longitude":31.5,"place_type":"Country"},{"name":"Africa","latitude":-30.0,"longitude":26.0,"place_type":"Country"},{"name":"Japan","latitude":35.68536,"longitude":139.7531,"place_type":"Country"}]}