{"organizations":["LEADING APPAREL MFG CO","Ltd","Coast Montessori College                                                                                                                                  Mildmay International","Booth Alex Industries","Hypericum Rudibeckia","Bachelors Degree in Textile Engineering                Nairnhi","Mathsand ComputerTeachers","University","MANAGER                                                                                                                      Nairobi Bottlers Limited","Nazarene                                                                                               The Medical Officer","UTI Factory","Mobile Clinical ART Training Teams","PMO","Kiboko Est.","Demand                                                                                                                         Fulfilment Team","Kisembe Estate","Kimathi Est.","Coca-Cola","Biafra Estate","Mission Directed Work Team","Thika H. Sch.","Royal College","Environmental Health and Safety","USAID Est.","Ministry of Health","Mbagathi College","Nairobi Bottlers Ltd","The Country Human Resources Manager","Mildmay        International","Ongata Rongai","Maternity Hosp.","Munene Industries","Orion","AIC Diguna, Banda Sch.","Ordinary Diploma","Sana Shoes &","National Youth Service","Thika Cloth Mills","Air Conditioning Systems"],"places":[{"name":"Athi River","latitude":-1.45071,"longitude":36.98245,"place_type":"City"},{"name":"P.O.","latitude":39.66472,"longitude":106.81222,"place_type":"City"},{"name":"East","latitude":-5.0,"longitude":120.0,"place_type":"Country"},{"name":"Dubai","latitude":25.0,"longitude":55.33333,"place_type":"Adm"},{"name":"U.K.","latitude":54.0,"longitude":-4.0,"place_type":"Country"},{"name":"Thika","latitude":-1.03326,"longitude":37.06933,"place_type":"City"},{"name":"NAIROBI","latitude":-1.28333,"longitude":36.81667,"place_type":"City"},{"name":"Kenya","latitude":1.0,"longitude":38.0,"place_type":"Country"},{"name":"Nyanza Province","latitude":-0.5,"longitude":34.5,"place_type":"Adm"},{"name":"Kisumu","latitude":-0.10221,"longitude":34.76171,"place_type":"City"},{"name":"South Africa","latitude":-30.0,"longitude":26.0,"place_type":"Country"},{"name":"DUBAI","latitude":25.0,"longitude":55.33333,"place_type":"Adm"},{"name":"THIKA","latitude":-1.03326,"longitude":37.06933,"place_type":"City"}]}