{"organizations":["Group Iiuman Resources Director","HR Department","Ministry","International Livestock","Business Administration","Ranch","pOSition of Human Resources Manager","International Livestock Research Institute","Kapiti Plains Estate","Guinness Stout","Hospital","Del Monte","Kapiti Plains Estate Limited","Del Monte Kenya Limited","Museum Hill Centre","East Afl","Kapiti Plains Estates","Research Institute","KBL","Mildmay                        Mission            Del Monte Kenya Limited","ILRI"],"places":[{"name":"NAIROBI","latitude":-1.28333,"longitude":36.81667,"place_type":"City"},{"name":"Kenya","latitude":1.0,"longitude":38.0,"place_type":"Country"},{"name":"KAPITI","latitude":-40.91667,"longitude":175.01666,"place_type":"City"},{"name":"Africa","latitude":-30.0,"longitude":26.0,"place_type":"Country"},{"name":"Kisumu","latitude":-0.10221,"longitude":34.76171,"place_type":"City"},{"name":"THIKA","latitude":-1.03326,"longitude":37.06933,"place_type":"City"},{"name":"Machakos","latitude":-1.51667,"longitude":37.26667,"place_type":"City"}]}