{"people":["Mr Otuko","Microbiol","Mr Hassan Mwan","Mr Samson","Mr Moroto","Keroka","Margaret                                                                   Mr Otuko","Mr Rotich","James Gesami","John Mwihume","Kimunya","Sam","Muturi","Susan Tonui","Kanu","Kenyatta","Otuko","Paul Kioko Kimunya","Kagiri","Dismas Wanjala","Mr Wanjala","Kiogora Kagere","David Mwangi Mwaniki","Mr Peter Kieti Muthiani","Kemri","Craig Cohen","Joseph Ringera","Mr Dishon Otu","David Mutahi          Gitonga","Peter Tukei          OYUgIS","Aduke Kasera","Mr Benjamin Rotich","Dick Omondi Oduor","MUCHEMI WACHIRA"],"organizations":["Daily Nation","National Hospital","Valley Hospital","Shl","Gates Foundation","University     Evan Gicheru","Couples Intervention Collabo","UCSF         Court Judge","Nyeri Children's Court","Kenya Certificate of Secondary Educa","Valley","University of Washington","Mombasa","Disease Control","cal Research Institute","NATION Correspondent Release","NATION Correspondent                                                                 Nyanza Provincial","Kwa Rhonda","Mtito Andei","National Union of Teachers","AIC","Provincial Administration"],"places":[{"name":"Nairobi","latitude":-1.28333,"longitude":36.81667,"place_type":"City"},{"name":"East Africa","latitude":-18.25,"longitude":35.0,"place_type":"Country"},{"name":"Mau West","latitude":28.53032,"longitude":70.36359,"place_type":"City"},{"name":"Nakuru","latitude":-0.28333,"longitude":36.06667,"place_type":"City"},{"name":"Kapenguria","latitude":1.21667,"longitude":35.11667,"place_type":"Stream"},{"name":"Kilgoris","latitude":-0.95,"longitude":34.86667,"place_type":"GisFeature"},{"name":"Nyeri","latitude":-0.42013,"longitude":36.94759,"place_type":"City"},{"name":"Matuga","latitude":-4.168,"longitude":39.57068,"place_type":"City"},{"name":"NYERI","latitude":-0.42013,"longitude":36.94759,"place_type":"City"},{"name":"Mombasa","latitude":-4.05466,"longitude":39.66359,"place_type":"City"},{"name":"California","latitude":37.25022,"longitude":-119.75126,"place_type":"Adm"},{"name":"San Francisco","latitude":37.77668,"longitude":-122.42031,"place_type":"GisFeature"},{"name":"Kenya","latitude":1.0,"longitude":38.0,"place_type":"Country"},{"name":"Kisii","latitude":-0.68174,"longitude":34.76666,"place_type":"City"},{"name":"Eldoret","latitude":0.52036,"longitude":35.26992,"place_type":"City"},{"name":"Nyanza Province","latitude":-0.5,"longitude":34.5,"place_type":"Adm"},{"name":"Kirinyaga","latitude":-0.45746,"longitude":37.37474,"place_type":"Adm"},{"name":"Kisumu","latitude":-0.10221,"longitude":34.76171,"place_type":"City"},{"name":"THIKA","latitude":-1.03326,"longitude":37.06933,"place_type":"City"}]}