{"people":["Jack Nyamongo","Hansaben Premji Vanghjiani","Mr       Jrocedures","Paul Kitenge","Ruto","Simeon Nyachae","Mr Kitenge","Kanu","John Koech","DAVID MUGONYI","Otieno Kajwang","Mr Joseph Ombayo","JEFF OTIENO"],"organizations":["Rogers Omolo","Uhuru Kenyatta","Naivasha   Parliamentary Select Committee","Public Health Laboratory Services","National","Ford-People","National Alliance           Kadhis Courts","National Blood Transfusion Centre","Government","PSC","National Assemblyto","William    Party","Coalition of National Unity","LDP"],"places":[{"name":"Naivasha","latitude":-0.71667,"longitude":36.43591,"place_type":"City"},{"name":"Nairobi","latitude":-1.28333,"longitude":36.81667,"place_type":"City"},{"name":"Kenya","latitude":1.0,"longitude":38.0,"place_type":"Country"},{"name":"Nakuru","latitude":-0.28333,"longitude":36.06667,"place_type":"City"},{"name":"Eldoret","latitude":0.52036,"longitude":35.26992,"place_type":"City"},{"name":"Embu","latitude":-23.64664,"longitude":-46.85386,"place_type":"Adm"},{"name":"Mombasa","latitude":-4.05466,"longitude":39.66359,"place_type":"City"}]}