{"people":["Siginon","Atta","E.A. Strorage","Nayer","Kaluworks"],"organizations":["Karai Industries","Kenya Power &","Head Office","T. Fisheries","Coast Province","Early     Childhood     Development","PEPFAR","Human     Resources and Development     Manager","Bakery","EMCO","Caltex","Co. Ltd","Tudor Sec                      Human Resources Office","Vitengl~ni Divisions       of Kilifi","University","United States Embassy","Khamisi Sec","Esso","Commerce Accounting Option","ARV","Grain Bulk Handlers","Mombasa Maize Millers","Shell","Diamond","CDC","Pharma Manager                                         Kenya NationalExaminationCoullcil","W. Marine","KPA","Community","SCB","Kenya Breweries","Unga St","Karai Mill","Molecular Biology Technologies","KCB","IEC","Jomo","Centers for Disease Control","Docks Union","Nanak","MS Excel","KANGETHE & MOLA                                                                        P.O.","Khoja Flats","Chief Magistrate","BCE","Cntholic    Secretariat","Ngong Road","Telephone                      Village Market                                                               Canvassing"],"places":[{"name":"Kaloleni","latitude":-1.3,"longitude":36.85,"place_type":"CitySubdivision"},{"name":"KENYA","latitude":1.0,"longitude":38.0,"place_type":"Country"},{"name":"Nairobi","latitude":-1.28333,"longitude":36.81667,"place_type":"City"},{"name":"Nairobi Kenya","latitude":-1.28333,"longitude":36.81667,"place_type":"City"},{"name":"Bamba","latitude":13.53333,"longitude":-14.91667,"place_type":"City"},{"name":"Kikambala","latitude":-3.89732,"longitude":39.79341,"place_type":"City"},{"name":"Mombasa","latitude":-4.05466,"longitude":39.66359,"place_type":"City"},{"name":"Bahari","latitude":-0.8857,"longitude":119.8441,"place_type":"City"},{"name":"NAIROBI","latitude":-1.28333,"longitude":36.81667,"place_type":"City"},{"name":"Kenya","latitude":1.0,"longitude":38.0,"place_type":"Country"},{"name":"Makupa","latitude":8.78333,"longitude":125.16667,"place_type":"City"},{"name":"Africa","latitude":-30.0,"longitude":26.0,"place_type":"Country"}]}