{"people":["Tom Mboya"],"organizations":["Shl","Jorimas Agencies","Edith Tel.","Sundays  Free","Mary Ward Retreat Centre","Connections Tours & Travel","Epeco Group","Ngong"],"places":[{"name":"Nairobi","latitude":-1.28333,"longitude":36.81667,"place_type":"City"},{"name":"US","latitude":39.76,"longitude":-98.5,"place_type":"Country"},{"name":"East Africa","latitude":-18.25,"longitude":35.0,"place_type":"Country"},{"name":"Uganda","latitude":2.0,"longitude":33.0,"place_type":"Country"},{"name":"Mombasa","latitude":-4.05466,"longitude":39.66359,"place_type":"City"},{"name":"Kenya","latitude":1.0,"longitude":38.0,"place_type":"Country"},{"name":"Iio","latitude":65.31735,"longitude":25.3731,"place_type":"City"},{"name":"central Kenya","latitude":-0.75,"longitude":37.0,"place_type":"Adm"},{"name":"Eldoret","latitude":0.52036,"longitude":35.26992,"place_type":"City"},{"name":"Karen","latitude":17.5,"longitude":97.75,"place_type":"Adm"},{"name":"Australia","latitude":-25.0,"longitude":135.0,"place_type":"Country"},{"name":"Netherlands","latitude":-5.0,"longitude":120.0,"place_type":"Country"},{"name":"Asia","latitude":9.56667,"longitude":122.6,"place_type":"Adm"}]}