{"people":["Justin Muturi","Siakago","Mr Francis Muthau","Wangari","William Kivuvani","Mr John","Ezekiel Mutua","Gar Suriguh","Mr Mutua","Ouko","Mr Kivu","Mr Said Saggar Ahmed","Salmin Mohammed","Maathai","James Kanyotu","Mr Ndindiri","Oburu Oginga","Prof Maathai","Piot","Mr Kivuvani","Mr                                                                                                                                                                        Dr Piot","Mr Otenyo","Maina Kamanda","Surendra Kumar","Wangari Maathai"],"organizations":["Information Technologv                                                                                   UNAids","Shl","Maji    Official Application Forms","Unicef","State Corporations","National Assembly","Nyong","Unep","UniverSity Senate","Augustana College","JOMO KENYATTA","Kanyotu","Information Technology                                                                               Peter Piot","Nation","Robert Ouko","Special Branch","House","Maathai","Committee","KCE","Bachelor of Science","Jomo Kenyatta University","Christine Mango                                                                                                                 man of Mis Spectre International","Government","National Agency","National Security Intelligence Service","Raila Odinga","University Senate","Nairobi Court","National      Assembly","Kisumu Molasses Plant","Mis Spectre Co.","Nacada"],"places":[{"name":"Nairobi","latitude":-1.28333,"longitude":36.81667,"place_type":"City"},{"name":"Nigeria","latitude":10.0,"longitude":8.0,"place_type":"Country"},{"name":"Tanzania","latitude":-6.0,"longitude":35.0,"place_type":"Country"},{"name":"P.O.","latitude":39.66472,"longitude":106.81222,"place_type":"City"},{"name":"Kenya Union","latitude":24.46597,"longitude":54.35203,"place_type":"GisFeature"},{"name":"Anyang","latitude":36.09944,"longitude":114.32889,"place_type":"City"},{"name":"Uganda","latitude":2.0,"longitude":33.0,"place_type":"Country"},{"name":"Mombasa","latitude":-4.05466,"longitude":39.66359,"place_type":"City"},{"name":"International  Airport","latitude":39.4988,"longitude":-119.76797,"place_type":"Airport"},{"name":"NAIROBI","latitude":-1.28333,"longitude":36.81667,"place_type":"City"},{"name":"Kenya","latitude":1.0,"longitude":38.0,"place_type":"Country"},{"name":"Africa","latitude":-30.0,"longitude":26.0,"place_type":"Country"},{"name":"Arusha","latitude":-3.36667,"longitude":36.68333,"place_type":"City"}]}