{"people":["Odera Chacha","Mr Josephat Akoyo","S. Njoroge","Daniel Musau","Evelyn Musimbi","Maraga","Mr Gikandi Ngibuini","Mr Ephan","Victoria Kalama","Francis Munene","Polife","Mr Justice Luka Kimaru","Lucas Watta","Mr Chacha","Karega Mutahi","Kirlnyaga","Fredrick Otieno","Dorothy Kavita","Biwott","SAM KIPLAGAT","Karisa Maitha","Mr Justice Kimaru"],"organizations":["Shl","David  Afraha    Educational    Development","Nzoia Outgrowers          By NATION Correspondent","District Hospital","High Court","Thdtigh Court","TM AG","Mwireri ViIlage","Burudi   Nzoia","Afraha Edu","Luo Nyanza","Kirinyaga District Hospi","Ms Nuru Ahmed  Distriqt Hospital","Kandungu Village","The Court of Appeal","Kenya Commercial Bank gets High Court","~ Commercial Bank","Justice David","Nabwera","Health      Survey","Local Government","Coast Prov","AG","North Eastern Province","Green","Afraha Development","Th4 AG","NATION Correspondent"],"places":[{"name":"Ruiru","latitude":-1.2,"longitude":37.11667,"place_type":"Stream"},{"name":"Kiogoro","latitude":-0.72361,"longitude":34.78374,"place_type":"GisFeature"},{"name":"Nanyuki","latitude":0.01667,"longitude":37.07283,"place_type":"City"},{"name":"LAIKIPIA","latitude":0.41667,"longitude":36.75,"place_type":"Adm"},{"name":"NAKURU","latitude":-0.28333,"longitude":36.06667,"place_type":"City"},{"name":"Mombasa","latitude":-4.05466,"longitude":39.66359,"place_type":"City"},{"name":"Central Kenya","latitude":-0.75,"longitude":37.0,"place_type":"Adm"},{"name":"Kenya","latitude":1.0,"longitude":38.0,"place_type":"Country"},{"name":"Kisli","latitude":41.03333,"longitude":24.66667,"place_type":"City"},{"name":"Central Province","latitude":-13.5,"longitude":34.0,"place_type":"Adm"},{"name":"Kisii","latitude":-0.68174,"longitude":34.76666,"place_type":"City"},{"name":"Eldoret","latitude":0.52036,"longitude":35.26992,"place_type":"City"},{"name":"Nzoia","latitude":0.45337,"longitude":34.61038,"place_type":"GisFeature"},{"name":"Germany","latitude":51.5,"longitude":10.5,"place_type":"Country"},{"name":"Oyugis","latitude":-0.50898,"longitude":34.73583,"place_type":"City"},{"name":"THIKA","latitude":-1.03326,"longitude":37.06933,"place_type":"City"}]}