{"people":["Mr Raila Maathai","Mr Ngunyi","Ngilu","Yawezekana Bita Moi","Mrs Ngilu","Kibaki","Mutahi","Maathai"],"organizations":["Nobel Peace Laureate Wangari Maathai","Nalico Media Group","DP","Nation Centre","Civil Service","SUNDAY NATION                                                                            Government","LDP","Rainbow","First World","National Development","Nation Media Group Limited","Prof Peter Anyang Nyong"],"places":[{"name":"Nairobi","latitude":-1.28333,"longitude":36.81667,"place_type":"City"},{"name":"Hong Kong","latitude":22.28552,"longitude":114.15769,"place_type":"City"},{"name":"Taiwan","latitude":24.0,"longitude":121.0,"place_type":"Country"},{"name":"Kenya","latitude":1.0,"longitude":38.0,"place_type":"Country"},{"name":"East Asia","latitude":11.0059,"longitude":109.16,"place_type":"City"},{"name":"Malaysia","latitude":2.5,"longitude":112.5,"place_type":"Country"},{"name":"Parliament","latitude":53.06667,"longitude":-0.81667,"place_type":"City"},{"name":"Singapore","latitude":1.36667,"longitude":103.8,"place_type":"Country"},{"name":"Africa","latitude":-30.0,"longitude":26.0,"place_type":"Country"},{"name":"Mombasa Road","latitude":-1.46667,"longitude":37.03333,"place_type":"Road"},{"name":"Asia","latitude":9.56667,"longitude":122.6,"place_type":"Adm"},{"name":"China","latitude":35.0,"longitude":105.0,"place_type":"Country"},{"name":"South Korea","latitude":37.0,"longitude":127.5,"place_type":"Country"}]}