{"people":["Mr G.G Kariuki","Mr Odinga","Mr Osundwa","Mr David Mwenje","Muriithi Muriuki","Joel Onyancha","Mumba","Alicen","Mr Sasura","Mr Maore","Cecily Mbarire","Samuel Poghisio","Kilemi Mwiria","Kagwe","Kibwana","Mr Okioma","Mr Kariuki","David Mwiraria","Kivutha Kibwana","Mr Mutahi","Mr Muchiri Gachara","Galgalo","Mbarire","Kanu","Akaranga","Julius","Kipkorir","Kitutu Masaba","Mirugi Kariuki","Adelina Mwau","Mr Kipruto","Wycliffe Osun","Chelaite","Philip Rotino","Mr Phillip Rotino","Sylvester Wakholi","Mwau","Whitesands             Raphael Tuju","Kirwa","Mr Ekwe Ethuro","Awori","Mutula Kilonzo","Mr Tuju","Mr G.G. Kariuki"],"organizations":["Central     Bank","Shl","Narc","Government                                                                   Agriculture","Parliament","Turkana Central","Ford People","High Court","National Park","Wildlife Conservation","Efficiency Monitoring Unit","Central Bank","Coast","House","Witness Protection Bill","CBK","International Conference Centre","EMU","Julius Bosire                                 Commission","President   Moody                                  Ozone","Ndaragwa","Government","National Social Health","Kirwa of Agriculture","Raila Odinga","Moore","Lumumba","Kapten and Company","Abdalla  Finance"],"places":[{"name":"Moyale","latitude":3.5167,"longitude":39.05842,"place_type":"City"},{"name":"Nairobi","latitude":-1.28333,"longitude":36.81667,"place_type":"City"},{"name":"Kenya","latitude":1.0,"longitude":38.0,"place_type":"Country"},{"name":"East Africa","latitude":-18.25,"longitude":35.0,"place_type":"Country"},{"name":"Boma","latitude":-15.05064,"longitude":35.20353,"place_type":"City"},{"name":"Nakuru","latitude":-0.28333,"longitude":36.06667,"place_type":"City"},{"name":"Mombasa","latitude":-4.05466,"longitude":39.66359,"place_type":"City"},{"name":"Kacheliba","latitude":1.48333,"longitude":35.01667,"place_type":"City"}]}