{"people":["Joan Holnles","JOAN HOLMES","Blunkett","Mugabe","Mr Blunkett"],"organizations":["Robert Mugabe","Amartya Sen","LSK","Nation Centre","International Zero Tolerance of Female","Herald","United Nations","Nation Media Group Limited"],"places":[{"name":"Britain","latitude":54.0,"longitude":-4.0,"place_type":"Country"},{"name":"Nairobi","latitude":-1.28333,"longitude":36.81667,"place_type":"City"},{"name":"New York","latitude":43.00035,"longitude":-75.4999,"place_type":"Adm"},{"name":"Kenya","latitude":1.0,"longitude":38.0,"place_type":"Country"},{"name":"HARARE","latitude":-17.82935,"longitude":31.05389,"place_type":"City"},{"name":"Africa","latitude":-30.0,"longitude":26.0,"place_type":"Country"},{"name":"Mombasa Road","latitude":-1.46667,"longitude":37.03333,"place_type":"Road"},{"name":"Harare","latitude":-17.82935,"longitude":31.05389,"place_type":"City"},{"name":"South Africa","latitude":-30.0,"longitude":26.0,"place_type":"Country"},{"name":"South Asia","latitude":-20.30367,"longitude":28.96435,"place_type":"Mine"},{"name":"China","latitude":35.0,"longitude":105.0,"place_type":"Country"}]}