{"organizations":["Community Health","USAID","NGO","Sector Project Enhancement Specialist","I. North Eastern","NEP","Community Development","VCT","Pastoral Livelihoods Programme","PMO","North Eastern Province","Clinical Services","Nairobi Office","Director of Veterinary Services","North Eastern    Sector   HIV-AIDS      Project   Office Assistant","Project and Human Resource Management","TBA","Programme","Bovine Tuberculosis","Ministry of Works","VCTs"],"places":[{"name":"Wajir","latitude":1.7471,"longitude":40.05732,"place_type":"City"},{"name":"Nairobi","latitude":-1.28333,"longitude":36.81667,"place_type":"City"},{"name":"Kenya","latitude":1.0,"longitude":38.0,"place_type":"Country"},{"name":"Mandera","latitude":3.93663,"longitude":41.86701,"place_type":"City"},{"name":"Garissa","latitude":-0.45355,"longitude":39.64011,"place_type":"City"},{"name":"Wajir District","latitude":1.75,"longitude":40.25,"place_type":"GisFeature"},{"name":"North Eastern Province       Kenya","latitude":1.0,"longitude":40.25,"place_type":"Adm"},{"name":"Tana River","latitude":-1.5,"longitude":39.5,"place_type":"Adm"}]}