{"people":["Laurent Nkunda","Shenouda","Judge Francis Tabai","Mr Obasanjo","Kayna                                                                                                                        Armia","Muhammadu Buhari","Joseph Kabila","Olusegun Obasanjo","Iliane Nabaa","Nabaa","Obasanjo","Mr Obas"],"organizations":["United Nations Children","Congolese Rally","Zaire","First American Bank Building","Unicef                                                                                                        General Gabriel Amisi","Gilfillan Hse","Canon House","Reuters","United Nations","Kanya","Congo"],"places":[{"name":"Britain","latitude":54.0,"longitude":-4.0,"place_type":"Country"},{"name":"CAIRO","latitude":30.06263,"longitude":31.24967,"place_type":"City"},{"name":"Kanyabayonga","latitude":-0.71111,"longitude":29.17306,"place_type":"City"},{"name":"North Kivu","latitude":-0.66667,"longitude":28.75,"place_type":"Adm"},{"name":"Nigeria","latitude":10.0,"longitude":8.0,"place_type":"Country"},{"name":"Armia","latitude":52.53333,"longitude":129.33333,"place_type":"Stream"},{"name":"ABUJA","latitude":8.83333,"longitude":7.16667,"place_type":"Adm"},{"name":"Kinshasa","latitude":0.0,"longitude":25.0,"place_type":"Country"},{"name":"Kigali","latitude":-1.94995,"longitude":30.05885,"place_type":"City"},{"name":"Rwanda","latitude":-2.0,"longitude":30.0,"place_type":"Country"},{"name":"Egypt","latitude":27.0,"longitude":30.0,"place_type":"Country"},{"name":"KINSHASA","latitude":0.0,"longitude":25.0,"place_type":"Country"},{"name":"Cairo","latitude":30.06263,"longitude":31.24967,"place_type":"City"},{"name":"Buka","latitude":40.81083,"longitude":69.19861,"place_type":"City"},{"name":"Kilindini","latitude":-4.2721,"longitude":39.20566,"place_type":"GisFeature"},{"name":"HARARE","latitude":-17.82935,"longitude":31.05389,"place_type":"City"},{"name":"Africa","latitude":-30.0,"longitude":26.0,"place_type":"Country"},{"name":"Ogun","latitude":7.0,"longitude":3.58333,"place_type":"Adm"},{"name":"Congo","latitude":0.0,"longitude":25.0,"place_type":"Country"},{"name":"Zimbabwe","latitude":-19.0,"longitude":29.0,"place_type":"Country"}]}