{"people":["Ngilu","Miguel Cervantes","A. P. OT/ENO","Ken","Kibaki","Goldenberg","Njehu Gatabaki","Pascal Lissouba","Mr Njehu","Suda","WILLIAM M. BELLAMY","Kirwa","Mrs Ngilu","Mr Bellamy","REDFORD ODOYO","Mutula Kilonzo","Gatabaki","Gerald Ford","Kipruto Kirwa"],"organizations":["Produce Board","MoL                                        Khartoum Government","Kenya Government","Iraq","Royal Dutch Airlines","NCPB","Kenya Airways","World Bank","Narc Government","The Kenya Government","Nation","Jomo Kenyatta","Gitaru Hydro","United Nations","Evans Sasaka & AP","North Rift About","Mbithi Salary Review","Municipal Education Officer","Kisumu Municipality","NSSF","Government","PSC","UN Security Council","National Cereals","University of Montreal"],"places":[{"name":"United States","latitude":39.76,"longitude":-98.5,"place_type":"Country"},{"name":"Britain","latitude":54.0,"longitude":-4.0,"place_type":"Country"},{"name":"Ngong Hills","latitude":-1.39988,"longitude":36.63813,"place_type":"Hill"},{"name":"Nairobi","latitude":-1.28333,"longitude":36.81667,"place_type":"City"},{"name":"US","latitude":39.76,"longitude":-98.5,"place_type":"Country"},{"name":"Bhopal","latitude":23.26667,"longitude":77.4,"place_type":"City"},{"name":"Kiambu","latitude":-1.16667,"longitude":36.83333,"place_type":"City"},{"name":"Latin America","latitude":41.94142,"longitude":-87.65339,"place_type":"Religious"},{"name":"Israel","latitude":31.5,"longitude":34.75,"place_type":"Country"},{"name":"Vietnam","latitude":16.16667,"longitude":107.83333,"place_type":"Country"},{"name":"India","latitude":20.0,"longitude":77.0,"place_type":"Country"},{"name":"Rhodesia","latitude":-15.0,"longitude":30.0,"place_type":"Country"},{"name":"Kenya","latitude":1.0,"longitude":38.0,"place_type":"Country"},{"name":"Phil","latitude":34.35093,"longitude":-87.70642,"place_type":"City"},{"name":"Africa","latitude":-30.0,"longitude":26.0,"place_type":"Country"},{"name":"Kisumu","latitude":-0.10221,"longitude":34.76171,"place_type":"City"},{"name":"Nzoia","latitude":0.45337,"longitude":34.61038,"place_type":"GisFeature"},{"name":"Embu","latitude":-23.64664,"longitude":-46.85386,"place_type":"Adm"},{"name":"Kenyatta","latitude":-1.1,"longitude":36.98333,"place_type":"Road"},{"name":"Kericho","latitude":-0.36774,"longitude":35.28314,"place_type":"City"},{"name":"Kurmuk","latitude":10.55,"longitude":34.28333,"place_type":"City"}]}