{"people":["Jerry Rawlings","Nyamu","Daniel Gachukia","Yoweri Museveni","Kolongolo","Geoffrey Kariithi","Kibaki","Korir","DANIEL NJUCUNA","Mr Nyamu","Mr Patrick Ejore","Kivutha Kibwana","Mwai Kibaki","John Otieno","Laurent Kabila","John Gachui","Kivuva Musonde                             Cairo"],"organizations":["Machakos Catholic Bishop Martin","Nai","Kenya Commercial Bank","Mombasa","State House","St Andrews Church","The Alekhwa Help Foundation Centre","Government","City     Lights","St Andrews","MoL                             Kivutha Kibwana","NGA","Turkana South","Evans Sasaka & AP","University of Nairobi","Transport and Communica"],"places":[{"name":"RIGA","latitude":56.946,"longitude":24.10589,"place_type":"City"},{"name":"United States","latitude":39.76,"longitude":-98.5,"place_type":"Country"},{"name":"Nairobi","latitude":-1.28333,"longitude":36.81667,"place_type":"City"},{"name":"Morocco","latitude":32.0,"longitude":-5.0,"place_type":"Country"},{"name":"Kiambu","latitude":-1.16667,"longitude":36.83333,"place_type":"City"},{"name":"West Bank","latitude":31.66667,"longitude":35.25,"place_type":"Adm"},{"name":"Burundi","latitude":-3.5,"longitude":30.0,"place_type":"Country"},{"name":"Nakuru","latitude":-0.28333,"longitude":36.06667,"place_type":"City"},{"name":"Uganda","latitude":2.0,"longitude":33.0,"place_type":"Country"},{"name":"Beirut Airport","latitude":33.82093,"longitude":35.48839,"place_type":"Airport"},{"name":"Nicaragua","latitude":13.0,"longitude":-85.0,"place_type":"Country"},{"name":"West Pokot District","latitude":1.41667,"longitude":35.25,"place_type":"GisFeature"},{"name":"Mombasa","latitude":-4.05466,"longitude":39.66359,"place_type":"City"},{"name":"Kenya","latitude":1.0,"longitude":38.0,"place_type":"Country"},{"name":"Bangkok","latitude":13.75,"longitude":100.51667,"place_type":"City"},{"name":"Oslo","latitude":59.91182,"longitude":10.73364,"place_type":"Adm"},{"name":"Congo","latitude":0.0,"longitude":25.0,"place_type":"Country"},{"name":"Norway","latitude":62.0,"longitude":10.0,"place_type":"Country"}]}