{"people":["Mogae","Hicks","Muindi Mbingu","David Hicks","Reddy","Mr Pronk","Achouri","Mr Jan         Pronk","Srinivasulu Reddy","Michael Mori"],"organizations":["Barclays Bank of Kenya","FUJITSU","Reuters","Municipal            Council         of Nyeri","Baobab Communications Ltd","Group","Television        News    Standard       Operating       Procedures","NancyWanJlkuKabul Tel","BBC","Process Servers","Reform and Development        Botswana","The National Movement                                                              Darfur","Commission Agents","Municipal                   Council     of Nyeri","The   United Nations","NYERI                                               Nation Media Group","eBOs","Festus Mogae","NGO","Union","Nyeri Branch","The Group Human Resources Director","2005             Nation     Media     Group     Limited","Nation Media Group Limited             POBox","OSS","Draft Valuation               Roll","AIC"],"places":[{"name":"United States","latitude":39.76,"longitude":-98.5,"place_type":"Country"},{"name":"Cuba","latitude":22.0,"longitude":-79.5,"place_type":"Country"},{"name":"Nairobi","latitude":-1.28333,"longitude":36.81667,"place_type":"City"},{"name":"City Square","latitude":26.71312,"longitude":-80.05921,"place_type":"GisFeature"},{"name":"US","latitude":39.76,"longitude":-98.5,"place_type":"Country"},{"name":"Khartoum","latitude":15.55177,"longitude":32.53241,"place_type":"City"},{"name":"Geneva","latitude":46.16667,"longitude":6.16667,"place_type":"Adm"},{"name":"East Africa","latitude":-18.25,"longitude":35.0,"place_type":"Country"},{"name":"Darfur","latitude":11.15,"longitude":25.25,"place_type":"Adm"},{"name":"Kurnool","latitude":15.58333,"longitude":78.33333,"place_type":"Adm"},{"name":"KHARTOUM","latitude":15.55177,"longitude":32.53241,"place_type":"City"},{"name":"NYERI","latitude":-0.42013,"longitude":36.94759,"place_type":"City"},{"name":"Sudan","latitude":16.0,"longitude":30.0,"place_type":"Country"},{"name":"India","latitude":20.0,"longitude":77.0,"place_type":"Country"},{"name":"Abuja","latitude":8.83333,"longitude":7.16667,"place_type":"Adm"},{"name":"Botswana","latitude":-22.0,"longitude":24.0,"place_type":"Country"},{"name":"LONDON","latitude":51.50853,"longitude":-0.12574,"place_type":"City"},{"name":"Guantanamo Bay","latitude":19.90444,"longitude":-75.10142,"place_type":"Prison"}]}