{"people":["Mr Zuma","Buthelezi","Mr Schabir Shaik","Mande","Peter","Kibaki","Mr Kgalema Motlante","Mutahi Ngunyi","Mr Man","Mr Mbeki","Thabo Mbeki","Mr Zuma         Mr Zuma","Mr Mandela","Martin Niemoller","Mr Shaik","Mbeki"],"organizations":["Mr Raila Odinga","State Univer","Congress","Pearly Gates","Boers","IDPs","Makau Mutua","New York Times","Winni Madikizela-Mandela","General","National Congress","Consulting House","SUNY Distin","ODM","ANC","House","Nelson Mandela","General Sani Abacha","Rights Commission","Sani Abacha"],"places":[{"name":"Nigeria","latitude":10.0,"longitude":8.0,"place_type":"Country"},{"name":"Israel","latitude":31.5,"longitude":34.75,"place_type":"Country"},{"name":"Rwanda","latitude":-2.0,"longitude":30.0,"place_type":"Country"},{"name":"West Africa","latitude":-12.5,"longitude":18.5,"place_type":"Country"},{"name":"New York","latitude":43.00035,"longitude":-75.4999,"place_type":"Adm"},{"name":"Kenya","latitude":1.0,"longitude":38.0,"place_type":"Country"},{"name":"Zambia","latitude":-15.0,"longitude":30.0,"place_type":"Country"},{"name":"Swaziland","latitude":-26.5,"longitude":31.5,"place_type":"Country"},{"name":"Robben Island","latitude":-33.78333,"longitude":18.36667,"place_type":"Airport"},{"name":"Mozambique","latitude":-18.25,"longitude":35.0,"place_type":"Country"},{"name":"Eldoret","latitude":0.52036,"longitude":35.26992,"place_type":"City"},{"name":"Africa","latitude":-30.0,"longitude":26.0,"place_type":"Country"},{"name":"South Africa","latitude":-30.0,"longitude":26.0,"place_type":"Country"},{"name":"Germany","latitude":51.5,"longitude":10.5,"place_type":"Country"},{"name":"Buffalo","latitude":-33.01529,"longitude":27.91162,"place_type":"City"}]}