{"people":["Muraguri","Mohammed Abdika","Mr Abdikadir","Mr Mohammed","Nascop","Beth                                                                            MPs","GATONYE GATHURA                                 Earlier","Jelani Habib"],"organizations":["VCT","Public Health","National Aids","PSC","Parliamentary Select Committee on Con- Ministry","NATION Correspondent                                                                                                                                                                    Nineteen Coast MPs","Committee of Experts","Central Business District","Liverpool","House","CDF","Electoral Commission","Control Programme"],"places":[{"name":"Nairobi","latitude":-1.28333,"longitude":36.81667,"place_type":"City"},{"name":"River Road","latitude":35.50683,"longitude":-76.99078,"place_type":"City"},{"name":"Canada","latitude":60.0,"longitude":-96.0,"place_type":"Country"},{"name":"Kibiko","latitude":-1.33333,"longitude":36.61667,"place_type":"GisFeature"},{"name":"Kisumu","latitude":-0.10221,"longitude":34.76171,"place_type":"City"},{"name":"Manitoba","latitude":55.00019,"longitude":-97.00049,"place_type":"Adm"}]}