{"people":["Thabo Mbeki","Jordan","Yoweri Museveni","Daniel","Mbeki"],"organizations":["South African Medical Research Council","Dalai Lama","RPA","Lordï¿½s Resistance Army of Joseph Kony","Rwandese Patriotic Army","Congo","Holland"],"places":[{"name":"Canaan","latitude":44.76173,"longitude":-69.56144,"place_type":"City"},{"name":"Tanzania","latitude":-6.0,"longitude":35.0,"place_type":"Country"},{"name":"Western Cape","latitude":-34.0,"longitude":20.0,"place_type":"Adm"},{"name":"Darfur","latitude":11.15,"longitude":25.25,"place_type":"Adm"},{"name":"Syria","latitude":35.0,"longitude":38.0,"place_type":"Country"},{"name":"Europe","latitude":43.5333,"longitude":3.9833,"place_type":"Hotel"},{"name":"Israel","latitude":31.5,"longitude":34.75,"place_type":"Country"},{"name":"India","latitude":20.0,"longitude":77.0,"place_type":"Country"},{"name":"Toronto","latitude":43.70011,"longitude":-79.4163,"place_type":"City"},{"name":"Denmark","latitude":56.0,"longitude":10.0,"place_type":"Country"},{"name":"Eritrea","latitude":15.0,"longitude":39.0,"place_type":"Country"},{"name":"South Africa","latitude":-30.0,"longitude":26.0,"place_type":"Country"},{"name":"China","latitude":35.0,"longitude":105.0,"place_type":"Country"},{"name":"Nairobi","latitude":-1.28333,"longitude":36.81667,"place_type":"City"},{"name":"North America","latitude":35.50069,"longitude":-80.00032,"place_type":"Adm"},{"name":"Turkey","latitude":39.05901,"longitude":34.91155,"place_type":"Country"},{"name":"Uganda","latitude":2.0,"longitude":33.0,"place_type":"Country"},{"name":"Kampala","latitude":0.31628,"longitude":32.58219,"place_type":"City"},{"name":"Sudan","latitude":16.0,"longitude":30.0,"place_type":"Country"},{"name":"Egypt","latitude":27.0,"longitude":30.0,"place_type":"Country"},{"name":"northern Iraq","latitude":32.68333,"longitude":36.63333,"place_type":"GisFeature"},{"name":"Canada","latitude":60.0,"longitude":-96.0,"place_type":"Country"},{"name":"Germany","latitude":51.5,"longitude":10.5,"place_type":"Country"},{"name":"Congo","latitude":0.0,"longitude":25.0,"place_type":"Country"},{"name":"Sweden","latitude":62.0,"longitude":15.0,"place_type":"Country"},{"name":"Zimbabwe","latitude":-19.0,"longitude":29.0,"place_type":"Country"}]}