{"organizations":["Solidad Agencies","Saturday Magazine and Nation Media Group","USA","0722-798431 Dynamic International Services","Hearts Club","World Exclusive Introduction Agency","Royalty International","Lonny Club","Kilimambogo House"],"places":[{"name":"Nairobi","latitude":-1.28333,"longitude":36.81667,"place_type":"City"},{"name":"Chicago","latitude":41.70778,"longitude":-87.89062,"place_type":"GisFeature"},{"name":"Seychelles","latitude":-4.58333,"longitude":55.66667,"place_type":"Country"},{"name":"Europe","latitude":43.5333,"longitude":3.9833,"place_type":"Hotel"},{"name":"Central Kenya","latitude":-0.75,"longitude":37.0,"place_type":"Adm"},{"name":"America","latitude":39.76,"longitude":-98.5,"place_type":"Country"},{"name":"Western Kenya","latitude":0.5,"longitude":34.58333,"place_type":"Adm"},{"name":"Canada","latitude":60.0,"longitude":-96.0,"place_type":"Country"},{"name":"Africa","latitude":-30.0,"longitude":26.0,"place_type":"Country"},{"name":"Kisumu","latitude":-0.10221,"longitude":34.76171,"place_type":"City"},{"name":"Australia","latitude":-25.0,"longitude":135.0,"place_type":"Country"},{"name":"Germany","latitude":51.5,"longitude":10.5,"place_type":"Country"},{"name":"Asia","latitude":9.56667,"longitude":122.6,"place_type":"Adm"}]}