{"people":["Migori","Kendu Njoki Ndung","Mrs Linah Chelimo","Ngilu","Mara                                        G. KERI","Masoud Mwahima","Yoweri Museveni","Chris          Tomlison","Cecily Mbarire","Michael","SHIIRIBIWA SMITH","Artemus","Beth Mugo","Reid","Johna Njenga","Robin","Julius Sunkuli","Ali Khamenei","Milton Obote","Obote","Wangari Maathai"],"organizations":["Parliament","Rhodes University","Krenz","Maasai","Anniel Njoka & AP","Maasai Mara        park   Mara","Iraq","Christine Mango","The United Nations Security Council","United Somali Congress","Pan Am","National Water Ms Adelina Mwau to Parliament","Betty Tett                 Cheetah","Chama Cha Mapinduzi","Mombasa Mayor Najib Balala","Jaramogi Oginga Odinga","House","Narc           Maasai Mara"],"places":[{"name":"United States","latitude":39.76,"longitude":-98.5,"place_type":"Country"},{"name":"Nairobi","latitude":-1.28333,"longitude":36.81667,"place_type":"City"},{"name":"US","latitude":39.76,"longitude":-98.5,"place_type":"Country"},{"name":"Tanzania","latitude":-6.0,"longitude":35.0,"place_type":"Country"},{"name":"Berlin","latitude":52.5233,"longitude":13.41377,"place_type":"Adm"},{"name":"Parliament","latitude":53.06667,"longitude":-0.81667,"place_type":"City"},{"name":"Nakuru","latitude":-0.28333,"longitude":36.06667,"place_type":"City"},{"name":"South Vietnam","latitude":11.0,"longitude":107.0,"place_type":"GisFeature"},{"name":"Libya","latitude":25.0,"longitude":17.0,"place_type":"Country"},{"name":"Nyeri","latitude":-0.42013,"longitude":36.94759,"place_type":"City"},{"name":"Lamu","latitude":-2.27169,"longitude":40.90201,"place_type":"City"},{"name":"Mombasa","latitude":-4.05466,"longitude":39.66359,"place_type":"City"},{"name":"Kenya","latitude":1.0,"longitude":38.0,"place_type":"Country"},{"name":"Sajjad","latitude":35.72048,"longitude":51.40638,"place_type":"Hospital"},{"name":"Kendu Bay","latitude":-0.35892,"longitude":34.64924,"place_type":"City"},{"name":"Homa Bay","latitude":-0.52731,"longitude":34.45714,"place_type":"City"},{"name":"Amboseli","latitude":-2.66667,"longitude":37.28333,"place_type":"City"},{"name":"South Africa","latitude":-30.0,"longitude":26.0,"place_type":"Country"},{"name":"Molo","latitude":-0.2479,"longitude":35.73743,"place_type":"City"},{"name":"Nyanza","latitude":-0.5,"longitude":34.5,"place_type":"Adm"},{"name":"China","latitude":35.0,"longitude":105.0,"place_type":"Country"},{"name":"Zimbabwe","latitude":-19.0,"longitude":29.0,"place_type":"Country"}]}