{"people":["Mr Michael Fox","Ruma","Kisauni","Ketri","Mr Richard Bagine"],"organizations":["Atomic Commission","Kenya Wildlife Service","Tsavo Power Company","The Director of Veterinary Services","Aga Khan Health Serv","British Airways","Daily Nation!","Primary School","Reut","International Centre for Insect Physiology"],"places":[{"name":"United States","latitude":39.76,"longitude":-98.5,"place_type":"Country"},{"name":"Britain","latitude":54.0,"longitude":-4.0,"place_type":"Country"},{"name":"Ruma","latitude":45.00806,"longitude":19.82222,"place_type":"City"},{"name":"Kisauni","latitude":-6.21667,"longitude":39.23333,"place_type":"City"},{"name":"Kisabe","latitude":34.78333,"longitude":135.68333,"place_type":"City"},{"name":"Kwale","latitude":5.70632,"longitude":6.43741,"place_type":"City"},{"name":"Boston","latitude":42.35347,"longitude":-71.06094,"place_type":"GisFeature"},{"name":"London","latitude":51.50853,"longitude":-0.12574,"place_type":"City"}]}