{"people":["Steve Mavalu","Mr Gitu","Ngilu","Liz Kariuki","Priscilla  President Kibaki","George W. Bush","Kibaki","Joseph Munyani","Ghai","Ames Brown","Mr Kibaki","Emmanuel Maitha","John Michuki","V.O. Okoth Ogendo","Mutua Katuku","Mr Wanbali","Raila Odinga","Donald Rumsfeld","Hussein","Kanu","Gerry Gatia Gichu","Rosana"],"organizations":["NACC","Planning Department","Council","Parliament","Opposition","Colin Powell","Meteorological Department                                                                                                                                Star","Justice","National Aids Con","Citizen Kane","Kayole Divisional Office","Nairobi South","National Conference","Government","State","City Hall","Insti","Condoleezza Rice","US President","RKO Pictures"],"places":[{"name":"Britain","latitude":54.0,"longitude":-4.0,"place_type":"Country"},{"name":"Iran","latitude":32.0,"longitude":53.0,"place_type":"Country"},{"name":"Nairobi","latitude":-1.28333,"longitude":36.81667,"place_type":"City"},{"name":"Saudi Arabia","latitude":25.0,"longitude":45.0,"place_type":"Country"},{"name":"US","latitude":39.76,"longitude":-98.5,"place_type":"Country"},{"name":"Israel","latitude":31.5,"longitude":34.75,"place_type":"Country"},{"name":"Baghdad","latitude":33.34058,"longitude":44.40088,"place_type":"City"},{"name":"northern Iraq","latitude":32.68333,"longitude":36.63333,"place_type":"GisFeature"},{"name":"Kenya","latitude":1.0,"longitude":38.0,"place_type":"Country"},{"name":"Swaziland","latitude":-26.5,"longitude":31.5,"place_type":"Country"},{"name":"Africa","latitude":-30.0,"longitude":26.0,"place_type":"Country"},{"name":"Eastlands","latitude":-30.50903,"longitude":29.82775,"place_type":"City"},{"name":"Nyanza","latitude":-0.5,"longitude":34.5,"place_type":"Adm"}]}