{"people":["Mabele","Jo-Anne Collinge","Nnaedozie Umegbolu","Museveni","MIKE MANDE","Pius Msekwa","Judge Fran Lebow","MICHAEL WAKABI","Henk Bekedam","Mr Bekedam","Umegbolu","Erwin"],"organizations":["Justice  Gideon M Okello","Friday                      Dar es Salaam","The Tanzania National Assem","Friday              Broadcasting","Board of Governers","Friday                                                                                                                     The World Health Organisation","Information Studies         Certificate in Library","Treatment Action Campaign","Tanzanian House","Human Resource Management & Industrial","Small Business Centre                   Certificate","Applied Science                         Higher Diploma in Analytical Chemistry","Certificate in Secretarial Studies & Computer Application","' Tanzania                                                   Advanced Certificate in Human Resource Management","Advanced Certificate in Stores Management","House","Central Police Station","Police","Pru","Consultative      Council","Estate Management  Trade Minister Alec Erwin are          African Press Association","Hospital","Computer","K. Koech","Justice Okello","Electrical and Electronics              Higher Diploma","Network Engineering   Treatment Action Campaign","Human Resources Management","Health Ministry","National         Resistance Movement","Certificate"],"places":[{"name":"Nigeria","latitude":10.0,"longitude":8.0,"place_type":"Country"},{"name":"Hong Kong","latitude":22.28552,"longitude":114.15769,"place_type":"City"},{"name":"Tanzania","latitude":-6.0,"longitude":35.0,"place_type":"Country"},{"name":"Parliament","latitude":53.06667,"longitude":-0.81667,"place_type":"City"},{"name":"Cape Town","latitude":-33.92584,"longitude":18.42322,"place_type":"City"},{"name":"Atlanta","latitude":33.73119,"longitude":-84.38324,"place_type":"GisFeature"},{"name":"NEW YORK","latitude":43.00035,"longitude":-75.4999,"place_type":"Adm"},{"name":"Johannesburg","latitude":-26.20227,"longitude":28.04363,"place_type":"City"},{"name":"Vietnam","latitude":16.16667,"longitude":107.83333,"place_type":"Country"},{"name":"New York","latitude":43.00035,"longitude":-75.4999,"place_type":"Adm"},{"name":"Canada","latitude":60.0,"longitude":-96.0,"place_type":"Country"},{"name":"SHARPEVILLE","latitude":-26.68415,"longitude":27.87434,"place_type":"City"},{"name":"Beijing","latitude":40.25,"longitude":116.5,"place_type":"Adm"},{"name":"South Africa","latitude":-30.0,"longitude":26.0,"place_type":"Country"},{"name":"Auckland","latitude":-36.85,"longitude":174.78333,"place_type":"Adm"},{"name":"Georgia","latitude":32.75042,"longitude":-83.50018,"place_type":"Adm"},{"name":"China","latitude":35.0,"longitude":105.0,"place_type":"Country"},{"name":"Sharpeville","latitude":-26.68415,"longitude":27.87434,"place_type":"City"}]}