{"people":["Stephen Kanyaru","Kamau","Bush","Mukhisa Kituyi","Korir","Knut","Peter Anyang","Ochieng","Mcpherson","Mathiu","Kivutha Kibwana","Sulumeti","Stalin","Jesse Kamau","Paul Adhu Awiti","Cornelius Korir"],"organizations":["Lenin","TSC","Athinai Sec","Marx","Union","Minister for Finance","Mogotio Secondary","Teachers Service"],"places":[{"name":"US","latitude":39.76,"longitude":-98.5,"place_type":"Country"},{"name":"Kenya","latitude":1.0,"longitude":38.0,"place_type":"Country"},{"name":"Moscow","latitude":55.75,"longitude":37.5,"place_type":"Adm"},{"name":"Mogotio","latitude":-0.02208,"longitude":35.96176,"place_type":"City"},{"name":"Nakuru","latitude":-0.28333,"longitude":36.06667,"place_type":"City"},{"name":"Europe","latitude":43.5333,"longitude":3.9833,"place_type":"Hotel"},{"name":"Soviet Union","latitude":38.90344,"longitude":-77.03942,"place_type":"Pond"},{"name":"Philip","latitude":13.11667,"longitude":-59.46667,"place_type":"Adm"},{"name":"Iraq","latitude":33.0,"longitude":44.0,"place_type":"Country"}]}