{"people":["Obadiah","Mansell","Nicoletta Mantovani","Sam Mwangi","Meroni","Hassan","Hussein Aideed","Abdullah Yussuf","Pavarotti","Jose Ngili","Zakana Mohammed Hajj","Barbara Brauder","Nigel Mansell","Mr Mohamed","Sheikh Adan Mumin","Renata Meroni","Mr Hassan","Mohamed Kanyare Afrax","James Ogola Ouya","Priscilla Rosana","Bethuel Kiplagat","Luciano Pavarotti","Mr Lederberg","Musa Sudi Yallow","JOSHUA LEDERBERG","Karisa Maitha"],"organizations":["Jubba Vallen","Nairobi City Council·","Media Services","College     of Communication        and Technology","Church on State House Crescent","National","Local Government","Transitional National Gov","Ambassador                                                                            Kenya","Rockefeller University","Government","·Evans Waswa","Nation","Raila Odinga","Nairobi City Council                                                                         Unfortunately","Narc                                                                      Assembly","Kanu Government","MoW Club","IGAD","AIC"],"places":[{"name":"Nairobi","latitude":-1.28333,"longitude":36.81667,"place_type":"City"},{"name":"Saudi Arabia","latitude":25.0,"longitude":45.0,"place_type":"Country"},{"name":"Soma","latitude":49.91667,"longitude":2.5,"place_type":"Adm"},{"name":"Sudan","latitude":16.0,"longitude":30.0,"place_type":"Country"},{"name":"Mombasa","latitude":-4.05466,"longitude":39.66359,"place_type":"City"},{"name":"Gedo","latitude":2.34464,"longitude":42.27644,"place_type":"City"},{"name":"Thika","latitude":-1.03326,"longitude":37.06933,"place_type":"City"},{"name":"Kenya","latitude":1.0,"longitude":38.0,"place_type":"Country"},{"name":"Roysambu","latitude":-1.2,"longitude":36.88333,"place_type":"GisFeature"},{"name":"Ethiopia","latitude":8.0,"longitude":38.0,"place_type":"Country"},{"name":"Jersey","latitude":40.75766,"longitude":-73.91327,"place_type":"GisFeature"},{"name":"Eastleigh","latitude":-26.98023,"longitude":26.67272,"place_type":"City"},{"name":"Eastlands","latitude":-30.50903,"longitude":29.82775,"place_type":"City"},{"name":"Arta","latitude":39.16056,"longitude":20.98528,"place_type":"City"},{"name":"Djibouti","latitude":11.5,"longitude":42.5,"place_type":"Country"},{"name":"Kismayu","latitude":-0.35817,"longitude":42.54536,"place_type":"City"},{"name":"Somalia","latitude":6.0,"longitude":48.0,"place_type":"Country"}]}