{"organizations":["Project Manager","IPS                                                                                                                                                                                                                                    Africa                   An International   Conference","National   Programme         Officer","NGO","UNODC    Regional  Office for Eastern           Africa                                                                                                                                                                                                                   United   Nations   Avenue","Eastern Africa","English & Kiswahili","Horn of Africa","Hotel Management","IPS Africa                   An International   Conference","NGOs","Regional Office for Eastern","The Community     Forum","United Nations Office","Coordinate  Community   Service Organisations","IPS Africa","Regional    Editor                                                                                                                                                                                                                              Inter Press Service","Inter Press SelVice","International     Hotel"],"places":[{"name":"Southern","latitude":-19.0,"longitude":29.0,"place_type":"Country"},{"name":"Nairobi","latitude":-1.28333,"longitude":36.81667,"place_type":"City"},{"name":"Kenya","latitude":1.0,"longitude":38.0,"place_type":"Country"},{"name":"P.O.","latitude":39.66472,"longitude":106.81222,"place_type":"City"},{"name":"East Africa","latitude":-18.25,"longitude":35.0,"place_type":"Country"},{"name":"Auckland Park","latitude":-26.18135,"longitude":28.00385,"place_type":"City"},{"name":"Africa","latitude":-30.0,"longitude":26.0,"place_type":"Country"},{"name":"Kisumu","latitude":-0.10221,"longitude":34.76171,"place_type":"City"},{"name":"Johannesburg","latitude":-26.20227,"longitude":28.04363,"place_type":"City"}]}