{"people":["Mrs Mary Kuria","Norwe","Henry Dunant","Mr Paul Birech","William Deri"],"organizations":["Society","International Red Cross","Red Cross Movement","The Kenya Red Cross Society","Daily Nation!","Aisha Omar Maulana","Red Cross","International Federation","Government","Kenyatta International","Red Cross Societies","International Federa","Kenyan Government","Kenya Red Cross Society","Tracing Services and Logistics","Cross Society"],"places":[{"name":"KENYA","latitude":1.0,"longitude":38.0,"place_type":"Country"},{"name":"Nairobi","latitude":-1.28333,"longitude":36.81667,"place_type":"City"},{"name":"Kenya","latitude":1.0,"longitude":38.0,"place_type":"Country"},{"name":"Nakuru","latitude":-0.28333,"longitude":36.06667,"place_type":"City"},{"name":"Siaya","latitude":0.06116,"longitude":34.28823,"place_type":"City"},{"name":"Europe","latitude":43.5333,"longitude":3.9833,"place_type":"Hotel"},{"name":"Kisumu","latitude":-0.10221,"longitude":34.76171,"place_type":"City"},{"name":"Mombasa","latitude":-4.05466,"longitude":39.66359,"place_type":"City"}]}