{"people":["TIM DAHLBERG                                                                                     Imagine Tyson","Kirk Johnson","Kevin Mulama","Emmanuel Oduor","Klitschko","CHRIS TSUMA","Omondi","Michael Spinks-Steffen      Tangstad","Charles Anjimbi","Mike Tyson                  lennox lewis                 Maskaev","Ali Korane","Gamaliel Amunayia","Alfonso Ratliff","Johnson","Lewis","Mike Tyson","Vitali                 Lewis","Oduor","Oleg Maskaev","Lennox Lewis","Joseph Marwa","John Ruiz"],"organizations":["Western Province","East Africa               Complex","Tyson","Evander Holyfield","Unicef","Nakuru ABC","Mumias Amateur Boxing Club","Tonya Harding","Kenya Association of Sports     Medicine","United Nations Children Educa","Government","Kimbo","Pumwani Pal Pal               Mumias","Kenya Medical Practitioners and Dentists     Board","Mumias District"],"places":[{"name":"Tanzania","latitude":-6.0,"longitude":35.0,"place_type":"Country"},{"name":"Kenya","latitude":1.0,"longitude":38.0,"place_type":"Country"},{"name":"Kasarani","latitude":-1.10972,"longitude":37.07692,"place_type":"CitySubdivision"},{"name":"Canada","latitude":60.0,"longitude":-96.0,"place_type":"Country"},{"name":"Tyson","latitude":50.13336,"longitude":-107.05128,"place_type":"GisFeature"},{"name":"Nanyuki","latitude":0.01667,"longitude":37.07283,"place_type":"City"},{"name":"Kenya Police","latitude":-0.78333,"longitude":37.26667,"place_type":"PolicePost"},{"name":"Busia","latitude":0.45444,"longitude":34.07583,"place_type":"City"},{"name":"Los Angeles","latitude":33.88638,"longitude":-118.04535,"place_type":"GisFeature"},{"name":"Memphis","latitude":35.14953,"longitude":-90.04898,"place_type":"City"}]}