{"people":["Murungi","Jack Richter","Mr Murungi","Mr Moi","Tyson","Suge Knight","Naki","Mr                              Government","Kibaki","Richter","Gideon Mutua","Mr Danson Mungatana","Kombe","Kivutha Kibwana","Peter Munya","Kanu","Mutula Kilonzo","Mr Ramadhan Kajembe","JOSEPH MUTUA","Mr Kilonzo","Mr Mungatana","Michael Wamalwa"],"organizations":["House                                      Tyson","National Reconstruction","Fox News","Parliament","Police       Unit","Reuters","Nyamaroka","Narc Government","Death Row Records","Kenya Coalition for Access","National Laboratory","House","Police","Minister for Fiance","Fox News                                     of Greta Van Susteren","Kiraitu Murungi","Finance","Tyson","GlaxoSmithKline","Hospital","Tha Row Records","Justice","Kenya National Drug Policy","Nyabondo High School","Nyabondo Mission","Government","Kenya School of Monetary Studies","Essential Medicines      Retirement Bill"],"places":[{"name":"Nyando","latitude":-2.9403,"longitude":29.9923,"place_type":"City"},{"name":"Nairobi","latitude":-1.28333,"longitude":36.81667,"place_type":"City"},{"name":"Washington","latitude":47.50012,"longitude":-120.50147,"place_type":"Adm"},{"name":"Baringo","latitude":0.46667,"longitude":35.96667,"place_type":"City"},{"name":"NEW YORK","latitude":43.00035,"longitude":-75.4999,"place_type":"Adm"},{"name":"Salina","latitude":16.16667,"longitude":-95.2,"place_type":"City"},{"name":"Sondu","latitude":-0.39101,"longitude":35.01689,"place_type":"City"},{"name":"Kenya","latitude":1.0,"longitude":38.0,"place_type":"Country"},{"name":"Kano","latitude":11.5,"longitude":8.5,"place_type":"Adm"},{"name":"Nyamarimba","latitude":-17.42431,"longitude":32.78105,"place_type":"Stream"},{"name":"Bodi","latitude":9.38141,"longitude":1.56728,"place_type":"City"},{"name":"Makueni","latitude":-1.80409,"longitude":37.62034,"place_type":"City"},{"name":"Nyatike","latitude":-0.75,"longitude":34.63333,"place_type":"School"},{"name":"Kisumu","latitude":-0.10221,"longitude":34.76171,"place_type":"City"},{"name":"Homa Bay","latitude":-0.52731,"longitude":34.45714,"place_type":"City"},{"name":"Indianapolis","latitude":39.76838,"longitude":-86.15804,"place_type":"City"},{"name":"River","latitude":5.75,"longitude":8.5,"place_type":"Adm"}]}