{"people":["Jimmy Carter","liam Hague","Fidel Ramos","Margaret Thatcher","Bush","George Bush","Mr Joseph Estrada","Mr SlInkllli","Mrs Thatcher","Mahia","Senghor","Edward","Mr Blair","Ramos","Thabo Mbeki","JULIUS SUNKULI","Mr Mandela","Graca Machel","Julius Nyerere","Kanu","Nelson Mandela","Githurai","Pinochet","Nyerere"],"organizations":["Kenya Breweries","Natjoll Mcdia Group Limited","Macapagal","Rapid Response Force","Third World","Nation Centre","Leopold Sedar Senghor of Senegal","Labour Party","Football Club","Justice","Mandela","University","Tony Blair","United King","Government","State","Kenya Football Federation","Eastern Cape","Conservative Party","Minister of Justice","Heath","Estrada","Mandela and Tories","Chama cha Mapinduzi"],"places":[{"name":"Philippines","latitude":13.0,"longitude":122.0,"place_type":"Country"},{"name":"Tanzania","latitude":-6.0,"longitude":35.0,"place_type":"Country"},{"name":"Kasarani","latitude":-1.10972,"longitude":37.07692,"place_type":"CitySubdivision"},{"name":"London","latitude":51.50853,"longitude":-0.12574,"place_type":"City"},{"name":"Iraq","latitude":33.0,"longitude":44.0,"place_type":"Country"},{"name":"Kenya","latitude":1.0,"longitude":38.0,"place_type":"Country"},{"name":"Shabana","latitude":-1.395,"longitude":30.1795,"place_type":"City"},{"name":"Eastleigh","latitude":-26.98023,"longitude":26.67272,"place_type":"City"},{"name":"Durban","latitude":-29.8579,"longitude":31.0292,"place_type":"City"},{"name":"Rome","latitude":41.96667,"longitude":12.66667,"place_type":"Adm"},{"name":"Nzoia","latitude":0.45337,"longitude":34.61038,"place_type":"GisFeature"},{"name":"Asia","latitude":9.56667,"longitude":122.6,"place_type":"Adm"},{"name":"Nairobi","latitude":-1.28333,"longitude":36.81667,"place_type":"City"},{"name":"Dakar","latitude":14.6937,"longitude":-17.44406,"place_type":"City"},{"name":"Burundi","latitude":-3.5,"longitude":30.0,"place_type":"Country"},{"name":"Manila","latitude":14.59455,"longitude":120.97175,"place_type":"Adm"},{"name":"Johannesburg","latitude":-26.20227,"longitude":28.04363,"place_type":"City"},{"name":"Egypt","latitude":27.0,"longitude":30.0,"place_type":"Country"},{"name":"Zamalek","latitude":30.05,"longitude":31.25,"place_type":"Hotel"},{"name":"New York","latitude":43.00035,"longitude":-75.4999,"place_type":"Adm"},{"name":"America","latitude":39.76,"longitude":-98.5,"place_type":"Country"},{"name":"Zambia","latitude":-15.0,"longitude":30.0,"place_type":"Country"},{"name":"Paris","latitude":48.85339,"longitude":2.34864,"place_type":"Adm"},{"name":"Africa","latitude":-30.0,"longitude":26.0,"place_type":"Country"},{"name":"Normandy","latitude":49.5,"longitude":1.0,"place_type":"Adm"},{"name":"Kitwe","latitude":-12.79614,"longitude":28.24767,"place_type":"City"}]}