{"people":["Mr Frushone","Melchior Ndadaye","Bush","Jiang Zemin","Pierre Buyoya","Saddam Hussein","Berbick","Ndayizeye","Henderson","Mike","Sarit Centre","Francois Gere","ANDREW HAMMOND","Gwendolyn Facey","Mr Hammond","Patel","Jamal Khashoggi","Simon","Tim Garden","Buyoya                    ichael Nathan","Dan Murigi","J.K. Rowling","Domitien Ndayizeye"],"organizations":["Tolkien","Kibaki Presidential Press Service","Service","Relllers                                                                   America","PPS","England","Cromwell Hospital","Communist Party","Henderson","US                                                                            Magic","Iraq","Hardial  Nelson Mandela","Pentagon","Paul Beaver","Royal Institute of Interna","Washington Insti","Arusha Accords","National Liberation Forces","US","Tyson","Central and Great Lake","Defence of Democracy","Near East Studies","Force","US Committee                                                                                                                                 for Refugees                                                  Drphone","Aru","Kenya National Transfusion","Muhammad Ali","Centro House","Party Congress","Centro                                                                                                                                                                                               House","Gulf state of Qatar","FNL","FDD"],"places":[{"name":"United States","latitude":39.76,"longitude":-98.5,"place_type":"Country"},{"name":"Saudi Arabia","latitude":25.0,"longitude":45.0,"place_type":"Country"},{"name":"Tanzania","latitude":-6.0,"longitude":35.0,"place_type":"Country"},{"name":"Nai","latitude":10.95,"longitude":106.81667,"place_type":"City"},{"name":"Saddam Hussein","latitude":7.7816,"longitude":81.6111,"place_type":"City"},{"name":"Israel","latitude":31.5,"longitude":34.75,"place_type":"Country"},{"name":"Florida","latitude":28.75054,"longitude":-82.5001,"place_type":"Adm"},{"name":"London","latitude":51.50853,"longitude":-0.12574,"place_type":"City"},{"name":"Iraq","latitude":33.0,"longitude":44.0,"place_type":"Country"},{"name":"Thika","latitude":-1.03326,"longitude":37.06933,"place_type":"City"},{"name":"Kenya","latitude":1.0,"longitude":38.0,"place_type":"Country"},{"name":"Bururi","latitude":-3.85,"longitude":29.63333,"place_type":"Adm"},{"name":"Kuwait","latitude":29.5,"longitude":47.75,"place_type":"Country"},{"name":"China","latitude":35.0,"longitude":105.0,"place_type":"Country"},{"name":"Middle East","latitude":41.06665,"longitude":-104.65996,"place_type":"GisFeature"},{"name":"Nairobi","latitude":-1.28333,"longitude":36.81667,"place_type":"City"},{"name":"US","latitude":39.76,"longitude":-98.5,"place_type":"Country"},{"name":"Washington","latitude":47.50012,"longitude":-120.50147,"place_type":"Adm"},{"name":"Burundi","latitude":-3.5,"longitude":30.0,"place_type":"Country"},{"name":"Mombasa","latitude":-4.05466,"longitude":39.66359,"place_type":"City"},{"name":"America","latitude":39.76,"longitude":-98.5,"place_type":"Country"},{"name":"United   States","latitude":39.76,"longitude":-98.5,"place_type":"Country"}]}