{"people":["Samuel Macharia Gatitu","George Muturi Kiarie"],"organizations":["Tele","Revlon Plaza","IPS Bldg Kimathl St. Tel","Revlon","ERICSSON","Homecare  Jingles& General","Olkejuado   County       Council","Kikuyu    Nkrumah Road","Nation Centre rm306 Tel.","Biashara St. Tel.","LAVINGTON  GREENBOOKSHOP      LTD                                                                                   Panmar Systems","Noonkopir     Township","KIKUYU     Commercial   College June                                                                                                                    Hotel Sirona","SPINGBOARD        College Customer                                                         lupe Church","Ground Floor","Adams Arcade"],"places":[{"name":"Melita","latitude":49.26811,"longitude":-100.99669,"place_type":"City"},{"name":"KAKAMEGA","latitude":0.28422,"longitude":34.75228,"place_type":"City"},{"name":"Kenya","latitude":1.0,"longitude":38.0,"place_type":"Country"},{"name":"P.O.","latitude":39.66472,"longitude":106.81222,"place_type":"City"},{"name":"Kajiado","latitude":-1.85238,"longitude":36.77683,"place_type":"City"},{"name":"Nakuru","latitude":-0.28333,"longitude":36.06667,"place_type":"City"},{"name":"ELDORET","latitude":0.52036,"longitude":35.26992,"place_type":"City"}]}