{"people":["Mr Ken Wafula","Stephen Otieno Orot","Orot","Mr Wafula","ABIUD OCHIENG","Kibaki","Enoch Kibunguchy","Stephen Kiama"],"organizations":["NATION Correspondent          Teachers Advisory Centre","Eldoret Centre for Human","University of Nairobi","Centre for Human Rights"],"places":[{"name":"South East Asia","latitude":11.0059,"longitude":109.16,"place_type":"City"},{"name":"Kenya","latitude":1.0,"longitude":38.0,"place_type":"Country"},{"name":"Kiama","latitude":-34.68333,"longitude":150.86667,"place_type":"City"},{"name":"Lake Victoria","latitude":-38.05,"longitude":147.5,"place_type":"Lake"},{"name":"Eldoret","latitude":0.52036,"longitude":35.26992,"place_type":"City"},{"name":"Maseno","latitude":-0.00416,"longitude":34.60951,"place_type":"City"},{"name":"Embu","latitude":-23.64664,"longitude":-46.85386,"place_type":"Adm"},{"name":"Sudan","latitude":16.0,"longitude":30.0,"place_type":"Country"},{"name":"Nyanza","latitude":-0.5,"longitude":34.5,"place_type":"Adm"}]}