{"people":["David Ho","Enos Bernasconi","David Cooper","Fauci","Anthony Fauci","Bill Clinton","Ravi K. Walli","Robert Silician","Dr Fauci","Dr Ho","Krista Dong"],"organizations":["Miriam Hospital","US National Institutes of Health","Aaron Diamond Aids Research Centre","University of Munich","Reuters","Brown University","Conference","Johns Hopkins University","Civic Hospital"],"places":[{"name":"Lugano","latitude":46.01008,"longitude":8.96004,"place_type":"City"},{"name":"United States","latitude":39.76,"longitude":-98.5,"place_type":"Country"},{"name":"Baltimore","latitude":39.28808,"longitude":-76.61076,"place_type":"GisFeature"},{"name":"New York","latitude":43.00035,"longitude":-75.4999,"place_type":"Adm"},{"name":"Rhode Island","latitude":41.75038,"longitude":-71.49978,"place_type":"Adm"},{"name":"GENEVA","latitude":46.16667,"longitude":6.16667,"place_type":"Adm"},{"name":"Germany","latitude":51.5,"longitude":10.5,"place_type":"Country"},{"name":"Switzerland","latitude":47.00016,"longitude":8.01427,"place_type":"Country"},{"name":"Providence","latitude":41.75038,"longitude":-71.49978,"place_type":"Adm"}]}