{"people":["FRANK BARTON","Benjamin Nkowane"],"organizations":["World Bank","Palo Alto Medical","World Health Organisation","Acquired Immune Deficiency Syndrome","University of Zambia"],"places":[{"name":"California","latitude":37.25022,"longitude":-119.75126,"place_type":"Adm"},{"name":"France","latitude":46.0,"longitude":2.0,"place_type":"Country"},{"name":"South America","latitude":34.00043,"longitude":-81.00009,"place_type":"Adm"},{"name":"America","latitude":39.76,"longitude":-98.5,"place_type":"Country"},{"name":"Tanzania","latitude":-6.0,"longitude":35.0,"place_type":"Country"},{"name":"Zaire","latitude":0.0,"longitude":25.0,"place_type":"Country"},{"name":"Western Europe","latitude":48.57479,"longitude":8.9209,"place_type":"GisFeature"},{"name":"Africa","latitude":-30.0,"longitude":26.0,"place_type":"Country"},{"name":"Austria","latitude":47.33333,"longitude":13.33333,"place_type":"Country"},{"name":"Asia","latitude":9.56667,"longitude":122.6,"place_type":"Adm"},{"name":"London","latitude":51.50853,"longitude":-0.12574,"place_type":"City"}]}