{"people":["Uasin Gishu","Maina","William Maina"],"organizations":["Nyandarua","Trans Nzoia","National Aids Control Council","National Aids","Safari Park Hotel","Sexually Transmitted Infections Control","Meru","Murang"],"places":[{"name":"Turkana","latitude":0.66567,"longitude":37.88974,"place_type":"Hill"},{"name":"Nandi","latitude":-17.8,"longitude":177.41667,"place_type":"City"},{"name":"Nyamira","latitude":-0.56667,"longitude":34.91667,"place_type":"School"},{"name":"Nakuru","latitude":-0.28333,"longitude":36.06667,"place_type":"City"},{"name":"Bungoma","latitude":0.5635,"longitude":34.56055,"place_type":"City"},{"name":"Bomet","latitude":-0.78129,"longitude":35.34156,"place_type":"City"},{"name":"Homa Bay","latitude":-0.52731,"longitude":34.45714,"place_type":"City"},{"name":"Kericho","latitude":-0.36774,"longitude":35.28314,"place_type":"City"},{"name":"Migori","latitude":-1.06344,"longitude":34.47313,"place_type":"City"},{"name":"Kakamega","latitude":0.28422,"longitude":34.75228,"place_type":"City"},{"name":"Nairobi","latitude":-1.28333,"longitude":36.81667,"place_type":"City"},{"name":"Taita Taveta","latitude":-3.4,"longitude":38.37,"place_type":"Adm"},{"name":"Kiambu","latitude":-1.16667,"longitude":36.83333,"place_type":"City"},{"name":"Kilifi","latitude":-3.63045,"longitude":39.84992,"place_type":"City"},{"name":"Kajiado","latitude":-1.85238,"longitude":36.77683,"place_type":"City"},{"name":"Narok","latitude":-1.07829,"longitude":35.86012,"place_type":"City"},{"name":"Siaya","latitude":0.06116,"longitude":34.28823,"place_type":"City"},{"name":"Busia","latitude":0.45444,"longitude":34.07583,"place_type":"City"},{"name":"Nyeri","latitude":-0.42013,"longitude":36.94759,"place_type":"City"},{"name":"Mombasa","latitude":-4.05466,"longitude":39.66359,"place_type":"City"},{"name":"Kisii","latitude":-0.68174,"longitude":34.76666,"place_type":"City"},{"name":"Makueni","latitude":-1.80409,"longitude":37.62034,"place_type":"City"},{"name":"Kitui","latitude":-1.36696,"longitude":38.01056,"place_type":"City"},{"name":"Vihiga","latitude":0.53455,"longitude":34.79109,"place_type":"School"},{"name":"Kirinyaga","latitude":-0.45746,"longitude":37.37474,"place_type":"Adm"},{"name":"Kisumu","latitude":-0.10221,"longitude":34.76171,"place_type":"City"},{"name":"Kwale","latitude":5.70632,"longitude":6.43741,"place_type":"City"},{"name":"Machakos","latitude":-1.51667,"longitude":37.26667,"place_type":"City"}]}