{"people":["Migori"],"organizations":["National Council for Population and Development","Parliamentary Committee on Health Rachael Nyamai"],"places":[{"name":"Kenya","latitude":1.0,"longitude":38.0,"place_type":"Country"},{"name":"Kitui","latitude":-1.36696,"longitude":38.01056,"place_type":"City"},{"name":"Rift Valley","latitude":0.5,"longitude":36.0,"place_type":"Adm"},{"name":"Narok","latitude":-1.07829,"longitude":35.86012,"place_type":"City"},{"name":"Kisumu","latitude":-0.10221,"longitude":34.76171,"place_type":"City"},{"name":"Homa Bay","latitude":-0.52731,"longitude":34.45714,"place_type":"City"},{"name":"Nyanza","latitude":-0.5,"longitude":34.5,"place_type":"Adm"},{"name":"Bay County","latitude":27.87307,"longitude":-82.51007,"place_type":"GisFeature"}]}