{"people":["Mr Roger Barilliet","Juhan Likola","Mr Frank Schnabel","Hagen"],"organizations":["Institute Pasteur Production","Association of French Hemophiliacs","Inter","Shl","Bayer","Revlon","Red Cross","World Federation  of Hemophilia","International Federation of Pharmaceutical Manufactures Associations","World Health Organisation Geneva","Opec","Administration","Food and Drug Administration","League of Red Cross Societies","US Food","French Government"],"places":[{"name":"United States","latitude":39.76,"longitude":-98.5,"place_type":"Country"},{"name":"North America","latitude":35.50069,"longitude":-80.00032,"place_type":"Adm"},{"name":"US","latitude":39.76,"longitude":-98.5,"place_type":"Country"},{"name":"Western Europe","latitude":48.57479,"longitude":8.9209,"place_type":"GisFeature"},{"name":"Geneva","latitude":46.16667,"longitude":6.16667,"place_type":"Adm"},{"name":"United Slates","latitude":36.56321,"longitude":-77.65859,"place_type":"City"},{"name":"Spain","latitude":40.0,"longitude":-4.0,"place_type":"Country"},{"name":"PARIS","latitude":48.85339,"longitude":2.34864,"place_type":"Adm"},{"name":"Latin America","latitude":41.94142,"longitude":-87.65339,"place_type":"Religious"},{"name":"Europe","latitude":43.5333,"longitude":3.9833,"place_type":"Hotel"},{"name":"Zurich","latitude":47.41667,"longitude":8.66667,"place_type":"Adm"},{"name":"France","latitude":46.0,"longitude":2.0,"place_type":"Country"},{"name":"Montreal","latitude":45.50884,"longitude":-73.58781,"place_type":"City"},{"name":"America","latitude":39.76,"longitude":-98.5,"place_type":"Country"},{"name":"Canada","latitude":60.0,"longitude":-96.0,"place_type":"Country"},{"name":"Paris","latitude":48.85339,"longitude":2.34864,"place_type":"Adm"},{"name":"Asia","latitude":9.56667,"longitude":122.6,"place_type":"Adm"},{"name":"Middle East","latitude":41.06665,"longitude":-104.65996,"place_type":"GisFeature"}]}