{"people":["EDWARD KITAIA","Andrew Kakimpe","Dr Ruhakana Rugunda"],"organizations":["The Health Education Division","Nyakibaje Mission Hospital","Ministry of Health"],"places":[{"name":"Mulago","latitude":0.35,"longitude":32.58333,"place_type":"CitySubdivision"},{"name":"Tanzania","latitude":-6.0,"longitude":35.0,"place_type":"Country"},{"name":"Zaire","latitude":0.0,"longitude":25.0,"place_type":"Country"},{"name":"Rukungiri","latitude":-0.84111,"longitude":29.94194,"place_type":"City"},{"name":"Rakai","latitude":-0.61556,"longitude":31.5175,"place_type":"City"},{"name":"Uganda","latitude":2.0,"longitude":33.0,"place_type":"Country"},{"name":"Kampala","latitude":0.31628,"longitude":32.58219,"place_type":"City"},{"name":"Lake Edward","latitude":-37.63333,"longitude":140.6,"place_type":"Lake"},{"name":"Rwanda","latitude":-2.0,"longitude":30.0,"place_type":"Country"},{"name":"Masaka","latitude":-0.33379,"longitude":31.73409,"place_type":"City"}]}