{"people":["Solomon","Mann","Jonathan Mann","Dr. James Chin","Marshall","THOMAS W. NETTER"],"organizations":["US Public Health Service","World Health Assembly","World Health Organization","French Polynesia","General Assembly","Compass News Features","SPA","Special Programme","United Nations"],"places":[{"name":"United States","latitude":39.76,"longitude":-98.5,"place_type":"Country"},{"name":"Americas","latitude":16.51667,"longitude":-90.64389,"place_type":"City"},{"name":"Tanzania","latitude":-6.0,"longitude":35.0,"place_type":"Country"},{"name":"Geneva","latitude":46.16667,"longitude":6.16667,"place_type":"Adm"},{"name":"Central Africa","latitude":-2.02107,"longitude":24.69727,"place_type":"GisFeature"},{"name":"Europe","latitude":43.5333,"longitude":3.9833,"place_type":"Hotel"},{"name":"Uganda","latitude":2.0,"longitude":33.0,"place_type":"Country"},{"name":"Tonga","latitude":-30.0,"longitude":26.0,"place_type":"Country"},{"name":"Rwanda","latitude":-2.0,"longitude":30.0,"place_type":"Country"},{"name":"France","latitude":46.0,"longitude":2.0,"place_type":"Country"},{"name":"Kenya","latitude":1.0,"longitude":38.0,"place_type":"Country"},{"name":"Ethiopia","latitude":8.0,"longitude":38.0,"place_type":"Country"},{"name":"Belgium","latitude":50.83333,"longitude":4.0,"place_type":"Country"},{"name":"Oceania","latitude":-15.0,"longitude":-140.0,"place_type":"PoliticalEntity"},{"name":"Africa","latitude":-30.0,"longitude":26.0,"place_type":"Country"},{"name":"New Zealand South Pacific","latitude":-38.36823,"longitude":177.91022,"place_type":"GisFeature"},{"name":"Denmark","latitude":56.0,"longitude":10.0,"place_type":"Country"},{"name":"Australia","latitude":-25.0,"longitude":135.0,"place_type":"Country"},{"name":"Asia","latitude":9.56667,"longitude":122.6,"place_type":"Adm"}]}