{"people":["Patrick Osewe","Joshua Angatia","Mr Angatia","Gallileo","Angatia"],"organizations":["CPK","Government","Afya House","US-based Centre for Disease Control"],"places":[{"name":"Nairobi","latitude":-1.28333,"longitude":36.81667,"place_type":"City"},{"name":"Kenya","latitude":1.0,"longitude":38.0,"place_type":"Country"},{"name":"Kisii","latitude":-0.68174,"longitude":34.76666,"place_type":"City"},{"name":"Atlanta","latitude":33.73119,"longitude":-84.38324,"place_type":"GisFeature"},{"name":"Siaya","latitude":0.06116,"longitude":34.28823,"place_type":"City"},{"name":"Homa Bay","latitude":-0.52731,"longitude":34.45714,"place_type":"City"},{"name":"Kenyatta","latitude":-1.1,"longitude":36.98333,"place_type":"Road"}]}