{"people":["Barack Obama","David Rudisha","Nelson Mandela","Obama"],"organizations":["FLORENCE BETT","Meru"],"places":[{"name":"Nairobi","latitude":-1.28333,"longitude":36.81667,"place_type":"City"},{"name":"US","latitude":39.76,"longitude":-98.5,"place_type":"Country"},{"name":"Kenya","latitude":1.0,"longitude":38.0,"place_type":"Country"},{"name":"Eldoret","latitude":0.52036,"longitude":35.26992,"place_type":"City"},{"name":"Nakuru","latitude":-0.28333,"longitude":36.06667,"place_type":"City"},{"name":"Kisumu","latitude":-0.10221,"longitude":34.76171,"place_type":"City"},{"name":"Nyeri","latitude":-0.42013,"longitude":36.94759,"place_type":"City"},{"name":"Mombasa","latitude":-4.05466,"longitude":39.66359,"place_type":"City"}]}