{"people":["Hillary Ngetich Chepsiror","TIMOTHY KEMEI"],"organizations":["National Aids Control Council","Narok"],"places":[{"name":"Laikipia","latitude":0.41667,"longitude":36.75,"place_type":"Adm"},{"name":"Kenya","latitude":1.0,"longitude":38.0,"place_type":"Country"},{"name":"Kajiado","latitude":-1.85238,"longitude":36.77683,"place_type":"City"},{"name":"Nakuru","latitude":-0.28333,"longitude":36.06667,"place_type":"City"},{"name":"Kericho","latitude":-0.36774,"longitude":35.28314,"place_type":"City"},{"name":"Bomet","latitude":-0.78129,"longitude":35.34156,"place_type":"City"}]}