{"people":["Margaret Kenyatta"],"organizations":["2008-9 Kenya Demographic Health Survey","National Aids Control Council","Newborn and Child Health","First Lady"],"places":[{"name":"Migori","latitude":-1.06344,"longitude":34.47313,"place_type":"City"},{"name":"Nairobi","latitude":-1.28333,"longitude":36.81667,"place_type":"City"},{"name":"Kenya","latitude":1.0,"longitude":38.0,"place_type":"Country"},{"name":"Kisii","latitude":-0.68174,"longitude":34.76666,"place_type":"City"},{"name":"Nakuru","latitude":-0.28333,"longitude":36.06667,"place_type":"City"},{"name":"Kisumu","latitude":-0.10221,"longitude":34.76171,"place_type":"City"},{"name":"Siaya","latitude":0.06116,"longitude":34.28823,"place_type":"City"},{"name":"Homa Bay","latitude":-0.52731,"longitude":34.45714,"place_type":"City"},{"name":"Mombasa","latitude":-4.05466,"longitude":39.66359,"place_type":"City"}]}