{"people":["Doris Adhiambo","Milton Muigai"],"organizations":["Prof MacMicheal","Director of Medical Services"],"places":[{"name":"Britain","latitude":54.0,"longitude":-4.0,"place_type":"Country"},{"name":"United States","latitude":39.76,"longitude":-98.5,"place_type":"Country"},{"name":"Nairobi","latitude":-1.28333,"longitude":36.81667,"place_type":"City"},{"name":"Kenya","latitude":1.0,"longitude":38.0,"place_type":"Country"},{"name":"Massachusetts","latitude":42.36565,"longitude":-71.10832,"place_type":"Adm"},{"name":"Bungoma District","latitude":0.75,"longitude":34.58333,"place_type":"GisFeature"},{"name":"Ndivisi","latitude":0.7,"longitude":34.81667,"place_type":"Stream"},{"name":"New England","latitude":54.9,"longitude":-1.51667,"place_type":"City"},{"name":"Boston","latitude":42.35347,"longitude":-71.06094,"place_type":"GisFeature"},{"name":"Busia","latitude":0.45444,"longitude":34.07583,"place_type":"City"},{"name":"South Africa","latitude":-30.0,"longitude":26.0,"place_type":"Country"},{"name":"Bungoma","latitude":0.5635,"longitude":34.56055,"place_type":"City"}]}