{"people":["Beatrice Kalekye","Mr Benjamin K. Muinde","Mr J. M. Ndeleva","J. Nyaga","Daniel Nguku","Nguku"],"organizations":["Aids Committee","Ministry of Health","Kanini Kaseo","MOH"],"places":[{"name":"Wajir","latitude":1.7471,"longitude":40.05732,"place_type":"City"},{"name":"Hola","latitude":46.5272,"longitude":32.52417,"place_type":"City"},{"name":"Mwingi","latitude":-0.93435,"longitude":38.06005,"place_type":"City"},{"name":"Kenya","latitude":1.0,"longitude":38.0,"place_type":"Country"},{"name":"Mandera","latitude":3.93663,"longitude":41.86701,"place_type":"City"},{"name":"Garissa","latitude":-0.45355,"longitude":39.64011,"place_type":"City"},{"name":"MWINGI","latitude":-0.93435,"longitude":38.06005,"place_type":"City"},{"name":"Eastern Province","latitude":2.5,"longitude":27.0,"place_type":"Adm"}]}