{"people":["Chris Mwalwa","Stella Njeri","MARTIN TELEWA","Emma Njoki Wamae","Lucy Maina"],"organizations":["Christian NGO","Medical Assistance Programme International","Unicef","Nyeri Urban Project","Central Hotel","Young Nation","WAWERU MUGO Youth"],"places":[{"name":"Nairobi","latitude":-1.28333,"longitude":36.81667,"place_type":"City"},{"name":"Nyeri District","latitude":3.76667,"longitude":31.85,"place_type":"Mountain"},{"name":"Kilifi","latitude":-3.63045,"longitude":39.84992,"place_type":"City"},{"name":"Nakuru","latitude":-0.28333,"longitude":36.06667,"place_type":"City"},{"name":"Kisumu","latitude":-0.10221,"longitude":34.76171,"place_type":"City"},{"name":"Homa Bay","latitude":-0.52731,"longitude":34.45714,"place_type":"City"},{"name":"Embu","latitude":-23.64664,"longitude":-46.85386,"place_type":"Adm"},{"name":"Nyeri","latitude":-0.42013,"longitude":36.94759,"place_type":"City"},{"name":"Machakos","latitude":-1.51667,"longitude":37.26667,"place_type":"City"}]}