{"people":["Mr Johnny  Carson","BENSON KIMATHI","Anangwe"],"organizations":["Health Ministry","Karatina  Provincial Hospital","United States Centre for  Disease Control","Minister for Medical Services","United States Agency for International Development","USAid","Kenya  Medical Research Institute","Mathari","US Army Medical Research Unit"],"places":[{"name":"Nairobi","latitude":-1.28333,"longitude":36.81667,"place_type":"City"},{"name":"US","latitude":39.76,"longitude":-98.5,"place_type":"Country"},{"name":"Kenya","latitude":1.0,"longitude":38.0,"place_type":"Country"},{"name":"Nandi","latitude":-17.8,"longitude":177.41667,"place_type":"City"},{"name":"Kisii","latitude":-0.68174,"longitude":34.76666,"place_type":"City"},{"name":"Maua","latitude":-23.66364,"longitude":-46.44656,"place_type":"Adm"},{"name":"Muaua","latitude":-13.15028,"longitude":38.66861,"place_type":"City"},{"name":"Kwale","latitude":5.70632,"longitude":6.43741,"place_type":"City"},{"name":"Bungoma","latitude":0.5635,"longitude":34.56055,"place_type":"City"}]}