{"people":["Sam Wakhusama","Patricia","Evelyn Wakhusama","Evelyn","Ernest"],"organizations":["USA","Nambale Magnet School","Kenya Agricultural Research Institute","Starehe Boys Centre"],"places":[{"name":"United States","latitude":39.76,"longitude":-98.5,"place_type":"Country"},{"name":"Nambale","latitude":0.44594,"longitude":34.25194,"place_type":"City"},{"name":"Nairobi","latitude":-1.28333,"longitude":36.81667,"place_type":"City"},{"name":"Wendy","latitude":-22.38517,"longitude":30.52576,"place_type":"Farm"},{"name":"America","latitude":39.76,"longitude":-98.5,"place_type":"Country"},{"name":"Kenya","latitude":1.0,"longitude":38.0,"place_type":"Country"},{"name":"Busia","latitude":0.45444,"longitude":34.07583,"place_type":"City"},{"name":"Philip","latitude":13.11667,"longitude":-59.46667,"place_type":"Adm"}]}