{"people":["Mr Joe Muriuki","David Heyman","Bruce Forrest","Mr MuriukifUrtherarguesthat","Helen Jackson","Daniel Zagury","Robin GorD","Manuel Pinto","Jose Esparza"],"organizations":["APS Features","International Covenant on Civiland Political Rights","US National Â· Institute of Allergy","Third World","World Health Organisation","United Biomedical","NIAID","Khan Hospital","Uganda Aids Commission","Global Programme","United Nations","National Aid$ Manual"],"places":[{"name":"Britain","latitude":54.0,"longitude":-4.0,"place_type":"Country"},{"name":"United States","latitude":39.76,"longitude":-98.5,"place_type":"Country"},{"name":"Nairobi","latitude":-1.28333,"longitude":36.81667,"place_type":"City"},{"name":"North America","latitude":35.50069,"longitude":-80.00032,"place_type":"Adm"},{"name":"Goma","latitude":-1.67917,"longitude":29.22278,"place_type":"City"},{"name":"Zaire","latitude":0.0,"longitude":25.0,"place_type":"Country"},{"name":"Third World","latitude":40.34927,"longitude":-74.65099,"place_type":"Pond"},{"name":"Thailand","latitude":15.0,"longitude":100.0,"place_type":"Country"},{"name":"Uganda","latitude":2.0,"longitude":33.0,"place_type":"Country"},{"name":"Europe","latitude":43.5333,"longitude":3.9833,"place_type":"Hotel"},{"name":"PANOS","latitude":43.80639,"longitude":19.33972,"place_type":"GisFeature"},{"name":"Rwanda","latitude":-2.0,"longitude":30.0,"place_type":"Country"},{"name":"India","latitude":20.0,"longitude":77.0,"place_type":"Country"},{"name":"Haiti","latitude":19.0,"longitude":-70.66667,"place_type":"Country"},{"name":"America","latitude":39.76,"longitude":-98.5,"place_type":"Country"},{"name":"Kenya","latitude":1.0,"longitude":38.0,"place_type":"Country"},{"name":"Brazil","latitude":-10.0,"longitude":-55.0,"place_type":"Country"},{"name":"Africa","latitude":-30.0,"longitude":26.0,"place_type":"Country"},{"name":"Malawi","latitude":-13.5,"longitude":34.0,"place_type":"Country"},{"name":"Zimbabwe","latitude":-19.0,"longitude":29.0,"place_type":"Country"}]}