{"people":["Larissa","Larissa Timbobler","Mohamed Abdulralunan","Yigal Amir","Rabin","Yitzhak Rabin","Khalid Maqbool"],"organizations":["Mississippi State Penitentiary","Shima la Tewa Prison","MSP","Prison Warden"],"places":[{"name":"California","latitude":37.25022,"longitude":-119.75126,"place_type":"Adm"},{"name":"New York","latitude":43.00035,"longitude":-75.4999,"place_type":"Adm"},{"name":"Washington","latitude":47.50012,"longitude":-120.50147,"place_type":"Adm"},{"name":"Parchman","latitude":33.91789,"longitude":-90.49648,"place_type":"City"},{"name":"Kenya","latitude":1.0,"longitude":38.0,"place_type":"Country"},{"name":"Canada","latitude":60.0,"longitude":-96.0,"place_type":"Country"},{"name":"Brazil","latitude":-10.0,"longitude":-55.0,"place_type":"Country"},{"name":"Russia","latitude":60.0,"longitude":100.0,"place_type":"Country"},{"name":"Israel","latitude":31.5,"longitude":34.75,"place_type":"Country"},{"name":"New Mexico","latitude":34.50034,"longitude":-106.00085,"place_type":"Adm"},{"name":"Connecticut","latitude":41.66704,"longitude":-72.66648,"place_type":"Adm"}]}