{"people":["Ervan","Barak","Mr Hertl","W. Bush","Mr Gregory Hertl"],"organizations":["University Way    P.O. Box","USAID/EPC Trade Development Programme","Ministry","USAID","Health Organisation","Natural Resource Management;    Success Stories","U.S. Embassy    Application","SMES","USAID Mission","National Bank Building","Anniversary Towers","Medium Enterprises","NGOs","Queen Elizabeth","United States Agency for International Development","Coast","United Nations","National Photo Identity Card","Export Promotion Council","Congo","The United States Agency for International Development","Voice of America","EPC"],"places":[{"name":"Britain","latitude":54.0,"longitude":-4.0,"place_type":"Country"},{"name":"Bundibugyo","latitude":0.74139,"longitude":30.04167,"place_type":"City"},{"name":"Nairobi","latitude":-1.28333,"longitude":36.81667,"place_type":"City"},{"name":"Philippines","latitude":13.0,"longitude":122.0,"place_type":"Country"},{"name":"US","latitude":39.76,"longitude":-98.5,"place_type":"Country"},{"name":"Pakistan","latitude":30.0,"longitude":70.0,"place_type":"Country"},{"name":"Zaire","latitude":0.0,"longitude":25.0,"place_type":"Country"},{"name":"Reston","latitude":38.96872,"longitude":-77.3411,"place_type":"City"},{"name":"Uganda","latitude":2.0,"longitude":33.0,"place_type":"Country"},{"name":"Sudan","latitude":16.0,"longitude":30.0,"place_type":"Country"},{"name":"Mombasa","latitude":-4.05466,"longitude":39.66359,"place_type":"City"},{"name":"India","latitude":20.0,"longitude":77.0,"place_type":"Country"},{"name":"California","latitude":37.25022,"longitude":-119.75126,"place_type":"Adm"},{"name":"New York","latitude":43.00035,"longitude":-75.4999,"place_type":"Adm"},{"name":"Kenya","latitude":1.0,"longitude":38.0,"place_type":"Country"},{"name":"Eldoret","latitude":0.52036,"longitude":35.26992,"place_type":"City"},{"name":"Africa","latitude":-30.0,"longitude":26.0,"place_type":"Country"},{"name":"Congo","latitude":0.0,"longitude":25.0,"place_type":"Country"}]}