{"people":["Yuko Obuchi","Ciavarella","Marsha Levick","Levick","Kepher","Elsa Ouko","LORRAINE ANYANGO","Michael","Obuchi","Mark Ciavarella","Elsa","Kephers","Lorraine Anyango","Kephers Khejeri"],"organizations":["Teachers’ Aids Control","Commission","Network of Education","Council Unit","PA Childcare","Teachers’ Service","Kyodo","Ministry of Health","Juvenile Law Centre","PA","Western PA Childcare","Tiriki       Childcare and Western PA Childcare","Centre"],"places":[{"name":"Luzerne County","latitude":41.37536,"longitude":-76.24993,"place_type":"Adm"},{"name":"Kenya","latitude":1.0,"longitude":38.0,"place_type":"Country"},{"name":"Philadelphia","latitude":39.8328,"longitude":-75.39505,"place_type":"GisFeature"},{"name":"Pennsylvania","latitude":40.27245,"longitude":-76.90567,"place_type":"Adm"},{"name":"Scranton","latitude":41.40897,"longitude":-75.66241,"place_type":"City"},{"name":"Japan","latitude":35.68536,"longitude":139.7531,"place_type":"Country"}]}