{"people":["Nicholas Muraguri","Ronald"],"organizations":["University ofNai mbi","University of California","Oxford","Neic","Chante University of Medicine","National Aids","Sangamo"],"places":[{"name":"California","latitude":37.25022,"longitude":-119.75126,"place_type":"Adm"},{"name":"Nairobi","latitude":-1.28333,"longitude":36.81667,"place_type":"City"},{"name":"Kenya","latitude":1.0,"longitude":38.0,"place_type":"Country"},{"name":"Canada","latitude":60.0,"longitude":-96.0,"place_type":"Country"},{"name":"Berlin","latitude":52.5233,"longitude":13.41377,"place_type":"Adm"},{"name":"Richmond","latitude":40.58344,"longitude":-74.14959,"place_type":"Adm"},{"name":"Manitoba","latitude":55.00019,"longitude":-97.00049,"place_type":"Adm"},{"name":"Los Angeles","latitude":33.88638,"longitude":-118.04535,"place_type":"GisFeature"}]}