{"people":["Colin McRae","PHILOMENA TOGOM","Yoweri Museveni","Kenneth","Mr John Gakuo","Kibaki","ODHIAMBO","Brian Davies","John Michuki","Marende","GITONGA H. GATOBU","VICTOR K. SIELE","Majiwa","Oloo Aringo","Kurtz","Cornelius Korir","Mahmoud Ahmadinejad"],"organizations":["Daily Nation","British Government","Kenya National Examina","Council","Parliament","Kenya Central Land Board","Inspec","Mobutu Ses","Michela Wrong","Alliance","Defence Force          Emmanuel Karisa Maitha","Kenya United Party","Safari Rally","Kenya Airways","Standard Media Group","Eldoret Catholic Bish","House"],"places":[{"name":"United States","latitude":39.76,"longitude":-98.5,"place_type":"Country"},{"name":"Nairobi","latitude":-1.28333,"longitude":36.81667,"place_type":"City"},{"name":"Tanzania","latitude":-6.0,"longitude":35.0,"place_type":"Country"},{"name":"West","latitude":30.86017,"longitude":72.31976,"place_type":"Adm"},{"name":"Uganda","latitude":2.0,"longitude":33.0,"place_type":"Country"},{"name":"Mombasa","latitude":-4.05466,"longitude":39.66359,"place_type":"City"},{"name":"Tana River","latitude":-1.5,"longitude":39.5,"place_type":"Adm"},{"name":"Kitale","latitude":1.01572,"longitude":35.00622,"place_type":"City"},{"name":"Zanzibar","latitude":-6.0,"longitude":35.0,"place_type":"Country"},{"name":"Afri","latitude":39.56742,"longitude":2.98189,"place_type":"City"},{"name":"Kenya","latitude":1.0,"longitude":38.0,"place_type":"Country"},{"name":"Africa","latitude":-30.0,"longitude":26.0,"place_type":"Country"},{"name":"South Africa","latitude":-30.0,"longitude":26.0,"place_type":"Country"},{"name":"Jerusalem","latitude":31.77902,"longitude":35.2253,"place_type":"City"}]}