{"people":["Peter O. Okwe","Ann Mwangi","Kelvin Kyalo","Maruti A. Khamala","Brenda Tolgos","Julius Matei Moga","Jenniffer Muindi","Josephine Ndinda"],"organizations":["Strathmore University"],"places":[{"name":"Nairobi","latitude":-1.28333,"longitude":36.81667,"place_type":"City"},{"name":"Iten","latitude":0.66667,"longitude":35.5,"place_type":"GisFeature"},{"name":"P.O.","latitude":39.66472,"longitude":106.81222,"place_type":"City"},{"name":"Nakuru","latitude":-0.28333,"longitude":36.06667,"place_type":"City"},{"name":"Kisumu","latitude":-0.10221,"longitude":34.76171,"place_type":"City"},{"name":"Mombasa","latitude":-4.05466,"longitude":39.66359,"place_type":"City"}]}